,date,speed,engine_load,throttle,heading,roll,pitch,sys,gyro,accel,mag,magx,magy,magz,gyrx,gyry,gyrz,linaccx,linaccy,linaxxz,time,time_diff
0,1517152662.58,11.0,0.5450980392156862,0.20392156862745098,0.0,0.0,0.0,0.0,0.0,0.0,0.0,-13.375,-15.6875,-23.875,0.03,-0.0188888888889,-0.1,1.0,0.46,-0.38,0.0,
1,1517152667.23,16.0,0.28627450980392155,0.1568627450980392,73.25,2.0625,-9.375,0.0,0.0,0.0,0.0,-11.5625,-18.25,-23.375,-0.01,-0.03,-0.235555555556,-0.13,0.73,-2.2,4.650000095367432,4.650000095367432
2,1517152671.9,13.0,0.6705882352941176,0.23921568627450981,109.75,1.25,-5.5,0.0,0.0,0.0,0.0,13.875,-7.25,-33.875,0.0855555555556,-0.0144444444444,-0.00777777777778,-0.68,1.37,-0.46,9.320000171661377,4.670000076293945
3,1517152676.54,32.0,0.49411764705882355,0.21176470588235294,159.75,4.125,-0.1875,0.0,0.0,0.0,0.0,11.1875,-7.5625,-33.0,0.0966666666667,-0.0288888888889,-0.02,-0.2,1.39,0.1,13.960000038146973,4.639999866485596
4,1517152681.2,42.0,0.14901960784313725,0.16862745098039217,159.75,6.0625,-0.6875,0.0,0.0,0.0,0.0,9.375,-7.6875,-33.75,-0.06444444444439999,-0.0344444444444,0.005555555555560001,0.04,0.3,-0.36,18.62000012397766,4.6600000858306885
5,1517152685.86,43.0,0.11764705882352941,0.1450980392156863,159.0625,8.0,0.25,0.0,0.0,0.0,0.0,10.6875,-7.0,-32.0625,-0.15,0.01,0.0477777777778,0.92,-0.77,-0.25,23.27999997138977,4.659999847412109
6,1517152690.51,38.0,0.12156862745098039,0.1450980392156863,159.5625,8.1875,-0.125,0.0,0.0,0.0,0.0,11.375,-8.0625,-31.75,-0.008888888888889999,0.0544444444444,0.0033333333333300003,0.91,-0.17,-0.79,27.930000066757202,4.650000095367432
7,1517152695.17,25.0,0.2627450980392157,0.15294117647058825,155.8125,11.5,-1.5,0.0,0.0,0.0,0.0,9.0625,-10.5625,-30.875,-0.0555555555556,-0.00777777777778,0.0033333333333300003,1.49,-0.5,0.16,32.59000015258789,4.6600000858306885
8,1517152699.81,3.0,0.3333333333333333,0.15294117647058825,156.5625,17.25,-3.6875,0.0,0.0,0.0,0.0,10.1875,-10.25,-30.6875,0.0166666666667,-0.0033333333333300003,0.0,0.17,0.07,0.02,37.230000019073486,4.639999866485596
11,1517152713.8,17.0,0.5215686274509804,0.21568627450980393,154.75,-2.1875,-3.3125,0.0,0.0,1.0,0.0,2.5625,-15.25,-29.5,0.104444444444,0.0288888888889,0.29,-0.55,-1.99,-0.37,51.22000002861023,13.990000009536743
12,1517152718.44,33.0,0.6588235294117647,0.24313725490196078,84.125,0.875,-1.5625,0.0,0.0,1.0,0.0,-10.5,-17.875,-28.5625,0.13,-0.025555555555599997,-0.032222222222199996,-1.05,0.04,0.48,55.860000133514404,4.640000104904175
13,1517152723.11,47.0,0.5333333333333333,0.21568627450980393,73.8125,3.0,-0.125,2.0,0.0,1.0,0.0,-31.5625,12.6875,-23.375,-0.041111111111099996,0.0155555555556,0.0033333333333300003,-0.33,-1.09,0.08,60.52999997138977,4.669999837875366
14,1517152727.77,58.0,0.3568627450980392,0.1568627450980392,73.3125,5.4375,-0.375,2.0,0.0,1.0,0.0,-33.5625,11.75,-21.75,0.858888888889,0.22111111111099999,0.18333333333299998,1.51,0.06,-0.79,65.19000005722046,4.6600000858306885
15,1517152732.43,61.0,0.18823529411764706,0.16862745098039217,66.25,2.125,-3.5625,0.0,0.0,1.0,0.0,-23.75,31.375,-25.0625,-0.0288888888889,0.00666666666667,0.02,0.39,-0.79,-0.11,69.85000014305115,4.6600000858306885
16,1517152737.08,64.0,0.3215686274509804,0.20392156862745098,65.0625,2.1875,-1.0,0.0,0.0,1.0,0.0,-27.5,32.0625,-27.1875,0.0588888888889,0.0155555555556,0.0155555555556,-0.03,0.21,0.61,74.5,4.6499998569488525
17,1517152741.72,69.0,1.0,0.6274509803921569,64.3125,2.75,1.0,0.0,0.0,1.0,0.0,-26.0625,30.0,-25.75,0.0777777777778,-0.024444444444400002,-0.03,-1.67,0.76,0.61,79.14000010490417,4.640000104904175
18,1517152746.36,82.0,0.12549019607843137,0.1411764705882353,68.125,1.75,0.3125,0.0,0.0,1.0,0.0,-26.6875,28.5,-24.875,-0.05333333333330001,-0.0522222222222,0.0211111111111,1.38,0.0,-1.2,83.77999997138977,4.639999866485596
19,1517152751.04,66.0,0.16470588235294117,0.14901960784313725,67.875,2.375,1.125,0.0,0.0,1.0,0.0,-25.6875,27.1875,-23.1875,-0.0333333333333,0.0877777777778,0.024444444444400002,2.37,-0.3,0.81,88.46000003814697,4.680000066757202
20,1517152755.73,37.0,0.12549019607843137,0.1411764705882353,66.875,6.625,2.5625,0.0,0.0,1.0,0.0,-28.5,21.25,-22.0,-0.004444444444439999,-0.011111111111099999,-0.008888888888889999,0.76,0.09,-0.01,93.15000009536743,4.690000057220459
21,1517152760.36,16.0,0.30980392156862746,0.14901960784313725,67.875,14.9375,3.8125,0.0,0.0,1.0,0.0,-26.1875,25.5625,-22.25,-0.0011111111111099998,-0.0033333333333300003,-0.008888888888889999,-0.86,0.31,-0.33,97.77999997138977,4.629999876022339
30,1517152802.24,27.0,0.807843137254902,0.2901960784313726,69.625,-5.625,-0.125,0.0,0.0,1.0,0.0,-23.75,14.0,-19.375,-0.00666666666667,-0.04666666666669999,0.00666666666667,0.8,0.09,0.51,139.6600000858307,41.88000011444092
31,1517152806.88,54.0,0.6980392156862745,0.24705882352941178,67.625,-5.625,-0.4375,2.0,0.0,1.0,0.0,-23.875,16.0,-19.875,-0.0488888888889,0.023333333333299996,-0.005555555555560001,1.12,-0.56,-0.8,144.30000019073486,4.640000104904175
32,1517152811.55,63.0,0.12549019607843137,0.1450980392156863,68.375,-4.1875,3.0,1.0,0.0,1.0,0.0,-24.0625,15.875,-20.75,-0.00666666666667,-0.00666666666667,0.012222222222200001,1.22,0.21,-0.07,148.97000002861023,4.669999837875366
33,1517152816.15,55.0,0.1450980392156863,0.1450980392156863,69.4375,4.0625,4.9375,0.0,0.0,1.0,0.0,-22.25,14.5625,-18.6875,0.05,0.036666666666699994,-0.044444444444399996,-0.35,0.8,0.62,153.57000017166138,4.6000001430511475
34,1517152820.81,45.0,0.16862745098039217,0.1450980392156863,74.3125,5.9375,4.8125,0.0,0.0,1.0,0.0,-20.25,12.75,-21.25,-0.026666666666700003,-0.0211111111111,0.0211111111111,0.39,0.19,-0.19,158.2300000190735,4.659999847412109
35,1517152825.47,24.0,0.2549019607843137,0.1450980392156863,71.125,10.3125,5.8125,1.0,0.0,1.0,0.0,-22.5,12.5625,-20.1875,-0.005555555555560001,-0.004444444444439999,0.0022222222222199996,0.72,0.1,0.12,162.89000010490417,4.6600000858306885
42,1517152857.98,7.0,0.6235294117647059,0.24313725490196078,71.6875,-3.6875,2.5625,1.0,0.0,1.0,0.0,-28.0,15.875,-21.1875,-0.0155555555556,-0.011111111111099999,-0.004444444444439999,-0.27,0.28,-0.22,195.40000009536743,32.50999999046326
43,1517152862.64,36.0,0.6274509803921569,0.25882352941176473,71.625,-3.375,2.375,1.0,0.0,1.0,0.0,-26.6875,17.5,-21.6875,0.0,0.025555555555599997,-0.0166666666667,0.15,0.77,0.81,200.06000018119812,4.6600000858306885
44,1517152867.28,53.0,0.6235294117647059,0.24705882352941178,72.25,-2.5,2.625,1.0,0.0,1.0,0.0,-27.1875,17.25,-20.375,-0.0844444444444,0.0188888888889,0.024444444444400002,0.58,-0.06,-0.03,204.70000004768372,4.639999866485596
45,1517152871.94,64.0,0.5568627450980392,0.1843137254901961,71.6875,0.125,3.0,1.0,0.0,1.0,0.0,-26.875,15.5625,-19.5625,-0.05333333333330001,-0.025555555555599997,0.0177777777778,0.66,-0.71,0.31,209.3600001335144,4.6600000858306885
46,1517152876.59,67.0,0.5372549019607843,0.21176470588235294,72.25,1.8125,4.1875,1.0,0.0,1.0,0.0,-27.375,16.75,-19.75,0.032222222222199996,-0.011111111111099999,0.013333333333299998,0.07,-0.6,-0.42,214.00999999046326,4.6499998569488525
47,1517152881.24,70.0,0.5568627450980392,0.20392156862745098,66.125,2.5625,4.8125,2.0,0.0,1.0,0.0,-27.5,17.875,-22.0625,-0.0177777777778,-0.0544444444444,0.0377777777778,0.74,-0.42,-2.35,218.6600000858307,4.650000095367432
48,1517152885.87,72.0,0.7019607843137254,0.2196078431372549,65.1875,2.5,4.375,0.0,0.0,1.0,0.0,-28.5,12.75,-21.5625,0.181111111111,-0.06888888888889999,-0.005555555555560001,0.6,0.12,-1.76,223.28999996185303,4.629999876022339
49,1517152890.52,74.0,0.7137254901960784,0.20784313725490197,67.1875,2.6875,4.9375,3.0,0.0,1.0,0.0,-29.875,10.875,-22.75,-0.013333333333299998,-0.023333333333299996,0.012222222222200001,0.92,-0.66,-0.91,227.94000005722046,4.650000095367432
50,1517152895.2,72.0,0.5411764705882353,0.23529411764705882,66.6875,3.3125,4.375,3.0,0.0,1.0,0.0,-28.5,11.5,-22.25,-0.04666666666669999,0.022222222222199998,0.0377777777778,0.18,-0.32,0.24,232.62000012397766,4.680000066757202
51,1517152899.85,73.0,0.7568627450980392,0.2549019607843137,65.75,2.5625,6.0625,3.0,0.0,1.0,0.0,-27.0625,11.0625,-22.25,0.012222222222200001,-0.0188888888889,-0.004444444444439999,0.19,0.5,-0.79,237.2699999809265,4.6499998569488525
52,1517152904.53,71.0,0.7607843137254902,0.26666666666666666,63.125,3.0,6.125,2.0,0.0,1.0,0.0,-28.5,19.25,-18.75,0.00666666666667,-0.0422222222222,-0.0211111111111,0.48,0.74,-1.32,241.95000004768372,4.680000066757202
53,1517152909.2,70.0,0.12549019607843137,0.1450980392156863,63.75,7.4375,4.5625,2.0,0.0,1.0,0.0,-29.5,17.5,-15.875,0.005555555555560001,0.0211111111111,-0.0277777777778,-0.36,0.25,0.09,246.62000012397766,4.670000076293945
54,1517152913.84,59.0,0.14901960784313725,0.1411764705882353,65.3125,11.3125,4.875,2.0,0.0,1.0,0.0,-30.6875,17.375,-16.5,-0.023333333333299996,-0.00777777777778,-0.06666666666669999,-0.14,0.66,-0.16,251.25999999046326,4.639999866485596
55,1517152918.51,45.0,0.16470588235294117,0.1450980392156863,73.1875,13.1875,4.6875,0.0,0.0,1.0,0.0,-26.75,13.0,-18.375,0.0033333333333300003,-0.012222222222200001,-0.0033333333333300003,0.23,-0.38,0.08,255.9300000667572,4.670000076293945
56,1517152923.16,24.0,0.2235294117647059,0.1411764705882353,73.4375,15.6875,7.4375,1.0,0.0,1.0,0.0,-26.6875,15.5,-18.75,0.00666666666667,0.0022222222222199996,-0.004444444444439999,0.45,0.16,0.01,260.58000016212463,4.650000095367432
58,1517152932.46,6.0,0.592156862745098,0.22745098039215686,73.125,4.375,4.8125,1.0,0.0,0.0,0.0,-27.0625,15.75,-20.0,-0.008888888888889999,0.011111111111099999,0.0155555555556,0.76,-0.48,-0.13,269.8800001144409,9.299999952316284
59,1517152937.1,29.0,0.23137254901960785,0.21568627450980393,72.4375,-2.125,2.875,1.0,0.0,0.0,0.0,-26.75,16.375,-22.375,0.0177777777778,0.032222222222199996,-0.0455555555556,0.96,0.41,-0.2,274.5199999809265,4.639999866485596
60,1517152941.75,39.0,0.3686274509803922,0.18823529411764706,76.3125,1.3125,3.3125,0.0,0.0,0.0,0.0,-26.1875,14.5625,-20.6875,0.0288888888889,-0.004444444444439999,0.0166666666667,0.29,0.08,-0.17,279.17000007629395,4.650000095367432
61,1517152946.43,49.0,0.6392156862745098,0.18823529411764706,72.875,2.6875,4.5625,1.0,0.0,0.0,0.0,-25.1875,14.25,-20.25,0.06444444444439999,0.0344444444444,-0.004444444444439999,0.35,-0.07,0.99,283.85000014305115,4.680000066757202
62,1517152951.1,58.0,0.1607843137254902,0.16862745098039217,72.625,3.375,4.9375,1.0,0.0,0.0,0.0,-28.0,14.1875,-20.1875,0.0211111111111,-0.008888888888889999,-0.0155555555556,0.08,0.55,-0.56,288.5199999809265,4.669999837875366
63,1517152955.76,63.0,0.47843137254901963,0.19607843137254902,73.0,4.75,5.125,1.0,0.0,0.0,0.0,-27.25,14.6875,-21.25,0.0355555555556,0.025555555555599997,0.012222222222200001,0.35,-1.58,0.49,293.1800000667572,4.6600000858306885
64,1517152960.42,65.0,0.3058823529411765,0.16470588235294117,75.625,4.1875,5.4375,0.0,0.0,0.0,0.0,-24.25,13.875,-22.5,-0.0288888888889,0.0277777777778,-0.0344444444444,0.12,0.78,-0.64,297.8400001525879,4.6600000858306885
65,1517152965.07,65.0,0.5294117647058824,0.17647058823529413,79.3125,3.125,6.375,0.0,0.0,0.0,0.0,-21.0625,16.75,-18.25,0.03,0.0011111111111099998,-0.163333333333,0.84,3.12,0.73,302.49000000953674,4.6499998569488525
66,1517152969.72,66.0,0.5607843137254902,0.21568627450980393,105.4375,4.1875,5.75,0.0,0.0,0.0,0.0,-2.5,2.5625,-24.375,-0.024444444444400002,0.0344444444444,-0.163333333333,0.51,3.14,0.7,307.1400001049042,4.650000095367432
67,1517152974.38,70.0,0.8,0.30980392156862746,148.25,4.1875,6.6875,0.0,0.0,0.0,0.0,5.75,2.6875,-26.0625,0.02,-0.00666666666667,-0.0333333333333,-0.3,0.51,-0.23,311.80000019073486,4.6600000858306885
68,1517152979.01,80.0,0.6666666666666666,0.26666666666666666,164.8125,3.75,4.4375,0.0,0.0,0.0,0.0,5.0,5.375,-21.875,0.011111111111099999,0.04,-0.0188888888889,0.05,0.3,-0.15,316.4300000667572,4.629999876022339
69,1517152983.67,85.0,0.8941176470588236,0.43137254901960786,168.75,3.4375,4.625,0.0,0.0,0.0,0.0,9.75,3.1875,-27.75,-0.023333333333299996,-0.0288888888889,-0.0022222222222199996,-0.18,-0.45,-1.13,321.0900001525879,4.6600000858306885
70,1517152988.35,98.0,0.8980392156862745,0.42745098039215684,171.25,3.125,4.875,0.0,0.0,0.0,0.0,9.75,6.5,-28.1875,-0.07,0.04333333333330001,0.013333333333299998,-0.32,-1.15,0.73,325.7699999809265,4.679999828338623
71,1517152992.98,109.0,0.12549019607843137,0.14901960784313725,172.4375,3.375,4.75,0.0,0.0,0.0,0.0,8.6875,4.6875,-25.1875,0.04,0.00777777777778,0.0022222222222199996,0.86,-0.28,1.33,330.40000009536743,4.630000114440918
72,1517152997.64,99.0,0.6470588235294118,0.24705882352941178,171.6875,4.0,5.5625,0.0,0.0,0.0,0.0,9.375,5.0,-26.375,0.0522222222222,0.00777777777778,-0.0344444444444,-0.09,1.14,0.49,335.0600001811981,4.6600000858306885
73,1517153002.32,101.0,0.403921568627451,0.23529411764705882,172.9375,4.0625,6.0,0.0,0.0,0.0,0.0,9.6875,6.0625,-26.1875,-0.0377777777778,0.0155555555556,-0.008888888888889999,-0.25,0.07,-0.87,339.74000000953674,4.679999828338623
74,1517153006.99,100.0,0.5882352941176471,0.23137254901960785,173.25,4.375,6.5,0.0,0.0,0.0,0.0,9.25,5.75,-26.25,0.04,0.0311111111111,0.00666666666667,-0.27,0.15,-0.13,344.4100000858307,4.670000076293945
75,1517153011.63,100.0,0.6980392156862745,0.2627450980392157,171.9375,4.5625,6.4375,0.0,0.0,0.0,0.0,8.1875,1.0,-27.875,-0.0311111111111,0.004444444444439999,0.0344444444444,0.02,-0.93,-1.45,349.05000019073486,4.640000104904175
76,1517153016.27,102.0,0.796078431372549,0.2784313725490196,166.3125,5.3125,2.9375,0.0,0.0,0.0,0.0,6.0625,-1.0,-26.0,0.0422222222222,0.0011111111111099998,-0.012222222222200001,-0.87,-1.14,1.95,353.69000005722046,4.639999866485596
77,1517153020.94,106.0,0.7450980392156863,0.2823529411764706,154.0,4.8125,3.375,0.0,0.0,0.0,0.0,2.5625,-4.875,-25.75,0.0511111111111,-0.0911111111111,0.0633333333333,-0.26,-1.22,-3.06,358.3600001335144,4.670000076293945
78,1517153025.59,108.0,0.6431372549019608,0.1607843137254902,140.1875,5.5625,4.4375,0.0,0.0,0.0,0.0,-22.5625,14.75,-16.5,-0.05,0.0177777777778,0.06,0.05,-1.68,0.29,363.00999999046326,4.6499998569488525
79,1517153030.27,106.0,0.796078431372549,0.17647058823529413,127.25,5.6875,5.375,0.0,0.0,0.0,0.0,-25.0,9.0,-16.1875,-0.004444444444439999,0.0022222222222199996,0.0844444444444,0.13,-1.72,-0.05,367.69000005722046,4.680000066757202
80,1517153034.92,107.0,0.2196078431372549,0.2901960784313726,113.625,6.3125,4.8125,0.0,0.0,0.0,0.0,-25.0625,6.0625,-17.0625,-0.036666666666699994,-0.0555555555556,0.07333333333330001,0.02,-0.9,0.51,372.3400001525879,4.650000095367432
81,1517153039.57,112.0,0.11764705882352941,0.1568627450980392,100.6875,6.5,4.4375,0.0,0.0,0.0,0.0,-27.375,4.0625,-17.6875,0.05666666666669999,-0.004444444444439999,0.0022222222222199996,0.91,0.08,0.45,376.99000000953674,4.6499998569488525
82,1517153044.21,104.0,0.10980392156862745,0.15294117647058825,95.0625,6.3125,7.0,1.0,0.0,0.0,0.0,-27.0625,4.1875,-15.75,0.06,-0.0388888888889,-0.0144444444444,-0.24,0.61,0.95,381.6300001144409,4.640000104904175
83,1517153048.85,97.0,0.13333333333333333,0.17647058823529413,94.875,6.6875,6.375,0.0,0.0,0.0,0.0,-27.1875,5.375,-18.5,-0.04666666666669999,0.004444444444439999,-0.0022222222222199996,0.13,0.89,0.71,386.2699999809265,4.639999866485596
84,1517153053.5,96.0,0.4745098039215686,0.20392156862745098,95.5,5.75,7.0,0.0,0.0,0.0,0.0,-26.5625,5.1875,-17.5625,-0.0511111111111,0.012222222222200001,-0.025555555555599997,-0.13,0.29,-1.05,390.92000007629395,4.650000095367432
85,1517153058.18,97.0,0.6039215686274509,0.24705882352941178,99.9375,5.6875,9.8125,0.0,0.0,0.0,0.0,-21.5625,7.0,-20.0,-0.0033333333333300003,0.0188888888889,-0.0377777777778,-0.29,0.78,0.68,395.60000014305115,4.680000066757202
86,1517153062.85,99.0,0.6666666666666666,0.17647058823529413,112.4375,5.8125,6.3125,0.0,0.0,0.0,0.0,-16.5,4.75,-21.75,0.0144444444444,-0.0211111111111,-0.0455555555556,0.34,1.5,-1.43,400.2699999809265,4.669999837875366
87,1517153067.53,97.0,0.35294117647058826,0.15294117647058825,125.9375,6.6875,7.5,0.0,0.0,0.0,0.0,-12.0625,5.5625,-21.6875,-0.02,0.022222222222199998,-0.0477777777778,0.04,1.43,-0.81,404.9500000476837,4.680000066757202
88,1517153072.18,94.0,0.16470588235294117,0.2235294117647059,138.8125,7.75,6.4375,0.0,0.0,0.0,0.0,-8.5,5.5625,-22.6875,-0.0544444444444,0.0,-0.0488888888889,0.15,0.4,-0.23,409.60000014305115,4.650000095367432
89,1517153076.81,96.0,0.2627450980392157,0.15294117647058825,151.125,7.25,4.125,0.0,0.0,0.0,0.0,-3.75,7.375,-22.375,-0.012222222222200001,0.011111111111099999,-0.044444444444399996,0.87,0.12,0.05,414.2300000190735,4.629999876022339
90,1517153081.47,93.0,0.47058823529411764,0.20392156862745098,163.3125,6.25,4.875,0.0,0.0,0.0,0.0,-0.5625,9.5625,-24.375,0.0277777777778,-0.0177777777778,-0.05,0.16,0.25,0.63,418.8900001049042,4.6600000858306885
91,1517153086.14,92.0,0.6784313725490196,0.23137254901960785,174.4375,5.75,2.0,0.0,0.0,0.0,0.0,-14.0625,22.6875,-18.875,-0.036666666666699994,-0.0011111111111099998,0.0177777777778,-0.12,-0.89,0.55,423.5600001811981,4.670000076293945
92,1517153090.78,94.0,0.5803921568627451,0.2235294117647059,176.25,6.0,0.6875,0.0,0.0,0.0,0.0,-14.25,22.6875,-20.25,0.0755555555556,-0.0311111111111,-0.025555555555599997,-0.56,0.4,-1.01,428.2000000476837,4.639999866485596
93,1517153095.42,95.0,0.5372549019607843,0.2196078431372549,176.375,6.25,2.0625,0.0,0.0,0.0,0.0,3.5625,20.25,-21.375,0.06888888888889999,-0.013333333333299998,-0.0455555555556,-0.27,0.32,-0.39,432.8400001525879,4.640000104904175
94,1517153100.08,96.0,0.7607843137254902,0.23921568627450981,176.0625,7.0,2.625,0.0,0.0,0.0,0.0,-15.5,25.6875,-20.25,-0.0988888888889,-0.023333333333299996,-0.0155555555556,-0.01,-0.46,-2.41,437.5,4.659999847412109
95,1517153104.7,99.0,0.596078431372549,0.1803921568627451,176.8125,7.1875,2.875,0.0,0.0,0.0,0.0,-15.375,24.0625,-19.5,0.0011111111111099998,0.036666666666699994,-0.0155555555556,-0.35,0.58,0.96,442.12000012397766,4.620000123977661
96,1517153109.36,100.0,0.3803921568627451,0.21176470588235294,176.6875,7.375,3.5625,0.0,0.0,0.0,0.0,-15.5625,26.0,-20.1875,-0.0755555555556,-0.008888888888889999,0.012222222222200001,0.68,-0.33,-0.27,446.77999997138977,4.659999847412109
97,1517153114.03,101.0,0.8235294117647058,0.3254901960784314,181.4375,6.75,7.125,0.0,0.0,0.0,0.0,-11.5,27.25,-22.6875,0.0144444444444,-0.0188888888889,-0.0888888888889,-0.31,2.42,-1.15,451.4500000476837,4.670000076293945
98,1517153118.69,106.0,0.13333333333333333,0.24705882352941178,193.75,6.4375,8.125,0.0,0.0,0.0,0.0,-8.25,27.75,-21.25,-0.032222222222199996,-0.044444444444399996,0.0011111111111099998,-0.14,-0.19,-1.34,456.1100001335144,4.6600000858306885
99,1517153123.31,102.0,0.7843137254901961,0.23529411764705882,202.125,7.4375,5.125,0.0,0.0,0.0,0.0,-10.1875,24.75,-24.0,0.024444444444400002,0.0177777777778,-0.0188888888889,0.18,-0.1,0.87,460.7300000190735,4.619999885559082
100,1517153127.99,102.0,0.5647058823529412,0.16470588235294117,202.4375,7.5,4.25,0.0,0.0,0.0,0.0,-9.0625,27.0,-25.375,-0.0277777777778,0.044444444444399996,-0.00666666666667,-0.74,0.16,0.97,465.4100000858307,4.680000066757202
101,1517153132.63,104.0,0.6470588235294118,0.21176470588235294,204.3125,7.375,4.5,0.0,0.0,0.0,0.0,-9.0,25.1875,-23.5,-0.0033333333333300003,-0.008888888888889999,0.05333333333330001,-0.08,-1.58,-1.06,470.05000019073486,4.640000104904175
102,1517153137.27,101.0,0.33725490196078434,0.24705882352941178,194.125,7.125,4.0,0.0,0.0,0.0,0.0,-5.1875,17.5625,-24.5625,-0.013333333333299998,0.005555555555560001,0.05333333333330001,-0.34,-1.33,0.48,474.69000005722046,4.639999866485596
103,1517153141.94,99.0,0.7764705882352941,0.2823529411764706,181.5625,5.875,6.4375,0.0,0.0,0.0,0.0,-5.6875,12.0,-24.75,0.141111111111,-0.0277777777778,0.0311111111111,-0.17,1.71,-0.86,479.3600001335144,4.670000076293945
104,1517153146.59,99.0,0.1803921568627451,0.15294117647058825,169.5625,4.6875,7.375,0.0,0.0,0.0,0.0,-15.1875,19.0,-20.6875,-0.0355555555556,0.01,0.0355555555556,0.67,-0.14,-0.27,484.00999999046326,4.6499998569488525
105,1517153151.24,94.0,0.7254901960784313,0.27058823529411763,161.5625,5.0625,7.5,0.0,0.0,0.0,0.0,-13.1875,18.6875,-19.875,-0.0422222222222,0.0022222222222199996,0.01,-0.07,-0.05,0.03,488.6600000858307,4.650000095367432
106,1517153155.9,96.0,0.8666666666666667,0.2980392156862745,161.75,5.8125,6.1875,0.0,0.0,0.0,0.0,-21.0,15.0,-3.6875,0.0022222222222199996,-0.0544444444444,-0.0211111111111,-0.27,0.15,-0.9,493.3200001716614,4.6600000858306885
107,1517153160.54,103.0,0.9098039215686274,0.4,162.3125,6.3125,6.25,0.0,0.0,0.0,0.0,-11.375,18.5,-20.5,-0.0211111111111,0.01,-0.004444444444439999,-0.48,0.65,-0.22,497.960000038147,4.639999866485596
108,1517153165.16,108.0,0.10980392156862745,0.14901960784313725,163.125,6.375,8.8125,0.0,0.0,0.0,0.0,-11.0,18.0,-21.1875,0.023333333333299996,0.0033333333333300003,-0.013333333333299998,0.38,0.44,-0.17,502.58000016212463,4.620000123977661
109,1517153169.83,101.0,0.12549019607843137,0.19607843137254902,163.0,7.3125,8.3125,0.0,0.0,0.0,0.0,-9.5,20.5,-21.75,0.0488888888889,-0.0288888888889,-0.05333333333330001,-0.2,1.41,-1.07,507.25,4.669999837875366
110,1517153174.49,100.0,0.19215686274509805,0.2235294117647059,170.4375,7.9375,6.3125,0.0,0.0,0.0,0.0,-8.6875,18.375,-21.6875,0.013333333333299998,0.0177777777778,0.0177777777778,-0.56,-0.32,-1.17,511.9100000858307,4.6600000858306885
111,1517153179.12,100.0,0.4588235294117647,0.24705882352941178,171.0,8.3125,4.3125,0.0,0.0,0.0,0.0,-8.75,14.6875,-22.75,-0.0288888888889,-0.005555555555560001,0.023333333333299996,-0.07,0.05,-0.78,516.539999961853,4.629999876022339
112,1517153183.76,99.0,0.10980392156862745,0.15294117647058825,167.25,7.6875,5.5,0.0,0.0,0.0,0.0,-10.5625,14.5,-22.875,0.023333333333299996,0.004444444444439999,0.025555555555599997,0.28,-0.53,0.92,521.1800000667572,4.640000104904175
113,1517153188.43,94.0,0.5764705882352941,0.14901960784313725,163.6875,7.9375,5.5625,0.0,0.0,0.0,0.0,-9.875,14.0625,-23.875,-0.0588888888889,0.02,0.02,0.77,-0.17,-1.22,525.8500001430511,4.670000076293945
114,1517153193.09,89.0,0.9725490196078431,0.6549019607843137,160.125,7.5,6.125,0.0,0.0,0.0,0.0,-11.1875,13.5,-21.0,-0.0455555555556,0.008888888888889999,0.013333333333299998,-0.83,0.22,-0.51,530.5099999904633,4.659999847412109
115,1517153197.74,99.0,0.11764705882352941,0.17254901960784313,158.125,5.875,7.5625,0.0,0.0,0.0,0.0,-8.75,14.25,-21.1875,-0.121111111111,-0.0177777777778,0.0333333333333,0.98,-0.99,-1.64,535.1600000858307,4.650000095367432
116,1517153202.41,82.0,0.12549019607843137,0.1411764705882353,159.5,5.875,9.0625,0.0,0.0,0.0,0.0,-9.5,14.5625,-23.5625,0.044444444444399996,-0.011111111111099999,-0.0144444444444,0.56,1.08,-0.71,539.8300001621246,4.670000076293945
117,1517153207.06,77.0,0.43137254901960786,0.2,158.8125,7.625,7.375,0.0,0.0,0.0,0.0,-17.0625,22.0,-19.5,-0.025555555555599997,0.022222222222199998,-0.0333333333333,-0.3,0.78,-0.01,544.4800000190735,4.6499998569488525
118,1517153211.72,79.0,0.2549019607843137,0.15294117647058825,167.3125,6.4375,6.4375,0.0,0.0,0.0,0.0,-10.1875,22.6875,-21.875,0.008888888888889999,0.0,-0.06444444444439999,0.38,1.0,-0.31,549.1400001049042,4.6600000858306885
119,1517153216.39,79.0,0.44313725490196076,0.2,179.0625,6.3125,5.125,0.0,0.0,0.0,0.0,-6.25,22.6875,-20.375,-0.0622222222222,-0.04333333333330001,-0.044444444444399996,0.07,0.44,-1.02,553.8100001811981,4.670000076293945
120,1517153221.02,78.0,0.16470588235294117,0.1803921568627451,190.625,6.0625,5.25,0.0,0.0,0.0,0.0,-4.1875,23.75,-21.25,0.036666666666699994,-0.0333333333333,-0.0333333333333,-0.46,-0.09,-0.94,558.4400000572205,4.629999876022339
121,1517153225.68,79.0,0.5294117647058824,0.21568627450980393,198.8125,5.9375,3.9375,0.0,0.0,0.0,0.0,-3.25,24.1875,-25.75,0.01,0.023333333333299996,-0.0377777777778,-0.05,0.6,0.16,563.1000001430511,4.6600000858306885
122,1517153230.32,81.0,0.7725490196078432,0.15294117647058825,208.4375,4.375,3.875,0.0,0.0,0.0,0.0,-0.6875,24.1875,-21.875,-0.0355555555556,0.026666666666700003,-0.05666666666669999,1.05,-0.14,-0.24,567.7400000095367,4.639999866485596
123,1517153235.0,76.0,0.20392156862745098,0.24705882352941178,217.9375,3.3125,4.4375,0.0,0.0,0.0,0.0,-2.25,22.25,-22.25,-0.022222222222199998,-0.0811111111111,0.013333333333299998,-0.02,-1.01,-1.07,572.420000076294,4.680000066757202
124,1517153239.65,71.0,0.7607843137254902,0.19607843137254902,217.125,4.625,0.9375,0.0,0.0,0.0,0.0,-3.5,22.6875,-20.0,-0.012222222222200001,0.00666666666667,0.08222222222219999,0.08,-1.22,0.46,577.0700001716614,4.650000095367432
125,1517153244.32,68.0,0.5215686274509804,0.2,201.0,5.0625,6.125,0.0,0.0,0.0,0.0,8.5,11.5625,-15.6875,0.0511111111111,-0.012222222222200001,0.0522222222222,0.23,0.29,-0.12,581.7400000095367,4.669999837875366
126,1517153248.96,68.0,0.7372549019607844,0.25882352941176473,182.0625,4.6875,8.5625,0.0,0.0,0.0,0.0,-2.375,9.1875,-23.6875,0.004444444444439999,-0.00777777777778,0.0755555555556,-0.05,-0.49,-1.34,586.3800001144409,4.640000104904175
127,1517153253.62,75.0,0.5568627450980392,0.16862745098039217,163.3125,4.1875,10.0625,0.0,0.0,0.0,0.0,-10.0,0.0625,-43.25,0.04,-0.0188888888889,0.06888888888889999,-0.04,-0.06,-0.16,591.039999961853,4.659999847412109
128,1517153258.26,80.0,0.11372549019607843,0.14901960784313725,143.8125,4.3125,11.375,0.0,0.0,0.0,0.0,-8.375,-7.875,-21.375,-0.00777777777778,0.0333333333333,-0.0022222222222199996,0.0,0.58,0.47,595.6800000667572,4.640000104904175
129,1517153262.93,78.0,0.8431372549019608,0.40784313725490196,139.3125,6.875,7.75,0.0,0.0,0.0,0.0,-7.75,-4.1875,-25.6875,0.0166666666667,-0.024444444444400002,-0.012222222222200001,-0.63,0.79,-0.56,600.3500001430511,4.670000076293945
130,1517153267.54,90.0,0.8156862745098039,0.3137254901960784,139.6875,3.9375,5.25,2.0,0.0,0.0,0.0,-18.1875,16.875,-19.5625,-0.0033333333333300003,-0.00777777777778,-0.0022222222222199996,0.22,-0.28,-0.25,604.960000038147,4.609999895095825
131,1517153272.21,101.0,0.4588235294117647,0.20784313725490197,141.125,5.0,5.875,0.0,0.0,0.0,0.0,-17.75,16.6875,-17.6875,0.008888888888889999,0.0166666666667,-0.02,-0.22,0.28,0.3,609.6300001144409,4.670000076293945
132,1517153276.88,105.0,0.5450980392156862,0.15294117647058825,141.5625,5.0,5.6875,0.0,0.0,0.0,0.0,-19.5,16.5625,-17.25,0.0333333333333,-0.0022222222222199996,0.011111111111099999,0.69,-0.15,-0.57,614.3000001907349,4.670000076293945
133,1517153281.53,104.0,0.13725490196078433,0.14901960784313725,140.5625,4.25,5.5,0.0,0.0,0.0,0.0,-18.0625,15.5,-18.0,0.0177777777778,0.03,-0.012222222222200001,0.28,1.08,0.59,618.9500000476837,4.6499998569488525
134,1517153286.19,98.0,0.7803921568627451,0.5098039215686274,140.8125,5.0,5.0,0.0,0.0,0.0,0.0,-18.0,16.375,-19.0,0.01,-0.0188888888889,-0.005555555555560001,-0.74,0.39,-1.45,623.6100001335144,4.6600000858306885
135,1517153290.85,104.0,0.9607843137254902,0.7803921568627451,142.25,4.9375,5.4375,0.0,0.0,0.0,0.0,-16.6875,16.875,-20.1875,0.0422222222222,-0.025555555555599997,0.00777777777778,-1.25,-0.2,-0.38,628.2699999809265,4.659999847412109
136,1517153295.51,121.0,0.9686274509803922,0.6980392156862745,141.0,3.5625,8.9375,0.0,0.0,0.0,0.0,-16.875,17.75,-20.5,-0.0477777777778,0.008888888888889999,-0.041111111111099996,0.14,0.33,0.12,632.9300000667572,4.6600000858306885
137,1517153300.16,134.0,0.10980392156862745,0.3137254901960784,146.0,5.0,9.5625,0.0,0.0,0.0,0.0,-14.25,15.25,-20.875,0.07111111111110001,-0.032222222222199996,-0.0422222222222,0.96,1.85,0.11,637.5800001621246,4.650000095367432
138,1517153304.82,132.0,0.2235294117647059,0.27058823529411763,157.6875,5.6875,10.8125,0.0,0.0,0.0,0.0,-9.75,16.5625,-21.75,0.0166666666667,0.0211111111111,-0.0555555555556,0.82,1.68,0.47,642.2400000095367,4.659999847412109
139,1517153309.48,128.0,0.19215686274509805,0.22745098039215686,167.625,6.375,12.3125,0.0,0.0,0.0,0.0,-8.875,16.1875,-22.5625,0.023333333333299996,-0.005555555555560001,-0.0355555555556,-0.05,1.79,0.55,646.9000000953674,4.6600000858306885
140,1517153314.15,124.0,0.21568627450980393,0.2901960784313726,171.875,6.75,9.625,0.0,0.0,0.0,0.0,-5.75,14.375,-21.75,0.00777777777778,0.0177777777778,0.0577777777778,-0.02,-0.52,-0.9,651.5700001716614,4.670000076293945
141,1517153318.77,121.0,0.49019607843137253,0.25098039215686274,164.125,5.5,9.0625,0.0,0.0,0.0,0.0,-7.375,8.75,-21.5625,-0.00666666666667,-0.012222222222200001,0.025555555555599997,0.85,0.49,1.47,656.1900000572205,4.619999885559082
142,1517153323.45,118.0,0.7372549019607844,0.34509803921568627,155.25,5.875,9.0625,0.0,0.0,0.0,0.0,-9.6875,8.1875,-21.875,0.022222222222199998,-0.004444444444439999,0.011111111111099999,-0.35,-0.12,0.06,660.8700001239777,4.680000066757202
143,1517153328.12,121.0,0.8235294117647058,0.3333333333333333,146.0625,6.5625,9.375,0.0,0.0,0.0,0.0,-19.1875,15.5,-19.0,-0.025555555555599997,-0.02,0.022222222222199998,-0.29,0.77,-0.62,665.539999961853,4.669999837875366
144,1517153332.81,125.0,0.10980392156862745,0.17254901960784313,140.0,7.25,10.1875,0.0,0.0,0.0,0.0,-20.5,15.875,-18.25,-0.0033333333333300003,0.0277777777778,0.0,1.68,0.53,0.97,670.2300000190735,4.690000057220459
145,1517153337.48,107.0,0.15294117647058825,0.19215686274509805,138.5,8.0,11.5625,0.0,0.0,0.0,0.0,-23.0625,17.5625,-18.6875,0.0011111111111099998,0.025555555555599997,0.0011111111111099998,-2.03,1.26,0.51,674.9000000953674,4.670000076293945
146,1517153342.12,117.0,0.9882352941176471,0.5254901960784314,135.6875,6.5625,13.625,0.0,0.0,0.0,0.0,-21.375,15.75,-18.5,-0.06666666666669999,0.032222222222199996,0.004444444444439999,-0.79,1.41,0.45,679.539999961853,4.639999866485596
147,1517153346.79,137.0,0.6588235294117647,0.26666666666666666,141.125,7.75,10.5625,0.0,0.0,0.0,0.0,-20.875,14.5625,-19.25,0.01,0.0288888888889,-0.0011111111111099998,0.4,0.54,1.22,684.210000038147,4.670000076293945
148,1517153351.46,136.0,0.8352941176470589,0.3607843137254902,139.5625,7.8125,12.875,0.0,0.0,0.0,0.0,-21.1875,15.375,-21.25,-0.06444444444439999,0.004444444444439999,-0.008888888888889999,1.22,1.97,0.66,688.8800001144409,4.670000076293945
149,1517153356.14,139.0,0.10980392156862745,0.592156862745098,144.375,8.8125,13.3125,0.0,0.0,0.0,0.0,-19.0625,14.75,-20.0,-0.00777777777778,0.0344444444444,-0.036666666666699994,-1.15,1.81,-0.32,693.5600001811981,4.680000066757202
150,1517153360.82,147.0,0.12941176470588237,0.24313725490196078,149.9375,8.875,13.5,0.0,0.0,0.0,0.0,-18.6875,12.0625,-20.6875,-0.022222222222199998,0.032222222222199996,-0.0188888888889,0.29,1.68,2.37,698.2400000095367,4.679999828338623
151,1517153365.46,145.0,0.2627450980392157,0.27450980392156865,153.1875,9.3125,11.4375,0.0,0.0,0.0,0.0,-27.5625,19.0625,-49.0,0.026666666666700003,0.0033333333333300003,-0.022222222222199998,-0.07,1.19,-0.12,702.8800001144409,4.640000104904175
152,1517153370.11,142.0,0.5843137254901961,0.29411764705882354,152.5,9.5,12.0,0.0,0.0,0.0,0.0,-18.0625,16.6875,-23.6875,-0.0177777777778,0.0211111111111,-0.00666666666667,1.18,1.62,1.14,707.5299999713898,4.6499998569488525
153,1517153374.75,138.0,0.5294117647058824,0.27450980392156865,154.1875,8.3125,14.875,0.0,0.0,0.0,0.0,-15.25,19.0,-24.875,0.05666666666669999,0.012222222222200001,-0.05666666666669999,0.08,2.29,0.48,712.170000076294,4.640000104904175
154,1517153379.41,136.0,0.5294117647058824,0.29411764705882354,160.0,8.5625,13.9375,0.0,0.0,0.0,0.0,-12.75,15.875,-25.0,-0.0033333333333300003,0.032222222222199996,-0.01,0.43,1.41,0.12,716.8300001621246,4.6600000858306885
155,1517153384.04,133.0,0.9450980392156862,0.403921568627451,160.9375,7.3125,12.1875,0.0,0.0,0.0,0.0,-11.0,16.75,-26.6875,0.036666666666699994,-0.0388888888889,0.0288888888889,-0.28,0.49,-0.2,721.460000038147,4.629999876022339
156,1517153388.69,131.0,0.8431372549019608,0.4,157.0625,7.5,10.9375,0.0,0.0,0.0,0.0,-18.75,16.875,-18.375,-0.0888888888889,0.005555555555560001,0.0577777777778,-0.32,-1.22,0.08,726.1100001335144,4.650000095367432
157,1517153393.32,131.0,0.8470588235294118,0.3686274509803922,149.1875,6.9375,10.8125,0.0,0.0,0.0,0.0,-20.5,14.0625,-19.0625,0.05,-0.005555555555560001,0.026666666666700003,0.14,0.37,0.34,730.7400000095367,4.629999876022339
158,1517153397.99,130.0,0.7098039215686275,0.30196078431372547,141.5625,6.5625,12.25,0.0,0.0,0.0,0.0,-19.875,13.6875,-21.25,0.041111111111099996,-0.011111111111099999,-0.024444444444400002,-0.13,1.42,0.72,735.4100000858307,4.670000076293945
159,1517153402.65,129.0,0.807843137254902,0.3254901960784314,141.125,7.0,12.625,0.0,0.0,0.0,0.0,-21.5625,13.25,-21.0625,-0.0311111111111,-0.004444444444439999,-0.005555555555560001,-0.27,1.78,0.4,740.0700001716614,4.6600000858306885
160,1517153407.29,130.0,0.6980392156862745,0.28627450980392155,141.75,7.6875,13.6875,0.0,0.0,0.0,0.0,-20.25,15.875,-21.5,-0.0622222222222,0.024444444444400002,0.005555555555560001,0.01,1.03,0.38,744.710000038147,4.639999866485596
161,1517153411.95,131.0,0.7019607843137254,0.2901960784313726,145.5,8.0,13.75,0.0,0.0,0.0,0.0,-18.6875,16.0625,-21.5,0.0211111111111,0.03,-0.02,-1.23,1.6,0.02,749.3700001239777,4.6600000858306885
162,1517153416.6,133.0,0.49411764705882355,0.2627450980392157,149.5625,9.25,13.0,0.0,0.0,0.0,0.0,-18.5,13.875,-23.0,-0.0011111111111099998,0.005555555555560001,-0.008888888888889999,-0.48,1.77,-0.28,754.0199999809265,4.6499998569488525
163,1517153421.24,133.0,0.19607843137254902,0.28627450980392155,151.3125,9.875,10.875,0.0,0.0,0.0,0.0,-18.1875,12.6875,-22.5625,0.005555555555560001,-0.02,-0.008888888888889999,-1.42,1.09,0.23,758.6600000858307,4.640000104904175
164,1517153425.88,130.0,0.7137254901960784,0.17254901960784313,151.375,9.6875,9.5625,0.0,0.0,0.0,0.0,-18.25,13.0,-21.5,0.0477777777778,-0.11888888888900001,-0.0177777777778,-0.37,2.28,-3.06,763.3000001907349,4.640000104904175
165,1517153430.52,130.0,0.7215686274509804,0.2196078431372549,151.8125,9.625,10.375,0.0,0.0,0.0,0.0,-21.0625,9.375,-20.5625,-0.0388888888889,-0.012222222222200001,0.00777777777778,0.09,0.45,-0.09,767.9400000572205,4.639999866485596
166,1517153435.18,130.0,0.6,0.2,152.0625,10.0625,9.0625,0.0,0.0,0.0,0.0,-21.6875,8.25,-21.0,0.0011111111111099998,0.0188888888889,-0.01,-0.58,1.82,-0.2,772.6000001430511,4.6600000858306885
167,1517153439.82,127.0,0.4470588235294118,0.30980392156862746,152.875,10.25,11.4375,0.0,0.0,0.0,0.0,-19.5625,10.5,-20.5625,0.024444444444400002,0.025555555555599997,-0.08222222222219999,-1.16,2.84,0.74,777.2400000095367,4.639999866485596
168,1517153444.47,129.0,0.17647058823529413,0.28627450980392155,161.125,10.4375,12.0625,0.0,0.0,0.0,0.0,-15.5,11.375,-24.875,-0.00666666666667,0.0188888888889,-0.00666666666667,-0.21,0.31,0.48,781.8900001049042,4.650000095367432
169,1517153449.13,126.0,0.10980392156862745,0.1607843137254902,164.4375,10.8125,10.875,0.0,0.0,0.0,0.0,-18.0625,19.0625,-19.375,0.0166666666667,-0.004444444444439999,0.0011111111111099998,0.04,0.65,-0.65,786.5500001907349,4.6600000858306885
170,1517153453.74,119.0,0.10588235294117647,0.15294117647058825,165.4375,10.5625,10.9375,0.0,0.0,0.0,0.0,-16.75,20.0625,-19.375,-0.0155555555556,-0.01,-0.011111111111099999,0.39,0.16,-0.64,791.1600000858307,4.609999895095825
171,1517153458.39,107.0,0.11372549019607843,0.15294117647058825,165.125,10.3125,11.1875,0.0,0.0,0.0,0.0,-15.875,18.875,-17.5625,-0.0166666666667,0.011111111111099999,0.0033333333333300003,0.42,0.62,-0.79,795.8100001811981,4.650000095367432
172,1517153463.04,91.0,0.17647058823529413,0.27058823529411763,165.75,10.0625,11.6875,0.0,0.0,0.0,0.0,-15.75,17.0625,-18.5625,0.041111111111099996,-0.025555555555599997,0.0211111111111,-0.51,-1.23,0.03,800.460000038147,4.6499998569488525
173,1517153467.69,91.0,0.8509803921568627,0.1843137254901961,161.4375,7.8125,6.9375,0.0,0.0,0.0,0.0,-17.0625,11.75,-20.1875,-0.01,-0.0177777777778,0.0677777777778,0.31,-0.62,-0.41,805.1100001335144,4.650000095367432
174,1517153472.37,90.0,0.8274509803921568,0.3137254901960784,145.75,6.75,10.0625,0.0,0.0,0.0,0.0,-6.25,-24.0,9.6875,-0.0633333333333,-0.06666666666669999,0.0755555555556,0.52,-1.06,-1.66,809.789999961853,4.679999828338623
175,1517153477.02,93.0,0.19215686274509805,0.16862745098039217,129.5,5.875,11.3125,0.0,0.0,0.0,0.0,-7.25,-8.1875,14.25,0.08222222222219999,-0.0188888888889,0.0277777777778,-0.61,0.54,-2.84,814.4400000572205,4.650000095367432
176,1517153481.66,93.0,0.16862745098039217,0.17647058823529413,113.75,5.25,12.625,1.0,0.0,0.0,0.0,-18.75,1.5,-22.0625,0.06666666666669999,-0.0477777777778,0.06666666666669999,-0.17,-0.71,-0.99,819.0800001621246,4.640000104904175
177,1517153486.3,98.0,0.9215686274509803,0.23137254901960785,95.875,4.4375,12.4375,2.0,0.0,0.0,0.0,-22.6875,3.5625,-26.0625,-0.06444444444439999,0.004444444444439999,0.0455555555556,0.49,-0.44,-0.05,823.7200000286102,4.639999866485596
178,1517153490.95,107.0,0.10980392156862745,0.14901960784313725,93.125,4.3125,13.3125,2.0,0.0,0.0,0.0,-22.5,2.375,-25.375,0.0033333333333300003,0.0588888888889,0.004444444444439999,1.4,0.09,0.73,828.3700001239777,4.650000095367432
179,1517153495.57,98.0,0.11764705882352941,0.1450980392156863,93.0625,2.75,13.1875,1.0,0.0,0.0,0.0,-20.375,1.25,-26.6875,0.0011111111111099998,-0.0344444444444,0.0,0.82,0.49,-1.43,832.9900000095367,4.619999885559082
180,1517153500.22,89.0,0.13333333333333333,0.1411764705882353,95.0625,5.0625,11.0,1.0,0.0,0.0,0.0,-20.0625,-0.1875,-24.5,-0.0655555555556,-0.0333333333333,0.012222222222200001,0.71,0.26,-2.58,837.6400001049042,4.650000095367432
181,1517153504.88,76.0,0.19607843137254902,0.1450980392156863,93.6875,6.0625,10.0625,0.0,0.0,0.0,0.0,-21.0625,-0.1875,-24.75,0.023333333333299996,0.0011111111111099998,0.012222222222200001,0.5,0.09,-0.55,842.3000001907349,4.6600000858306885
182,1517153509.49,69.0,0.1411764705882353,0.1450980392156863,92.0,7.0,9.375,1.0,0.0,0.0,0.0,-32.1875,15.875,-17.25,-0.011111111111099999,-0.00777777777778,0.013333333333299998,0.41,0.75,-0.17,846.9100000858307,4.609999895095825
183,1517153514.13,55.0,0.7058823529411765,0.28627450980392155,90.75,8.3125,7.875,0.0,0.0,0.0,0.0,-33.0625,18.0625,-18.25,-0.05,-0.025555555555599997,0.0144444444444,-0.59,0.06,0.5,851.5500001907349,4.640000104904175
184,1517153518.79,67.0,0.2823529411764706,0.20784313725490197,89.875,5.875,7.5,0.0,0.0,0.0,0.0,-26.0625,-9.0,-47.6875,0.024444444444400002,0.105555555556,0.012222222222200001,-0.47,0.25,0.77,856.210000038147,4.659999847412109
185,1517153523.46,73.0,0.12156862745098039,0.1450980392156863,89.6875,6.125,8.5625,0.0,0.0,0.0,0.0,-37.0625,25.0,-20.25,0.0144444444444,0.004444444444439999,0.025555555555599997,-0.1,0.06,-0.73,860.8800001144409,4.670000076293945
186,1517153528.1,75.0,0.8196078431372549,0.403921568627451,87.5625,5.9375,9.0,0.0,0.0,0.0,0.0,-38.25,24.875,-21.5625,0.044444444444399996,0.0311111111111,-0.0277777777778,-0.62,0.83,-1.61,865.5199999809265,4.639999866485596
187,1517153532.77,90.0,0.5372549019607843,0.26666666666666666,89.625,4.75,7.6875,0.0,0.0,0.0,0.0,-36.375,24.875,-21.6875,-0.0033333333333300003,-0.013333333333299998,-0.004444444444439999,-0.42,0.02,-1.06,870.1900000572205,4.670000076293945
188,1517153537.39,99.0,0.4549019607843137,0.20784313725490197,90.125,5.625,8.125,0.0,0.0,0.0,0.0,-38.5625,23.25,-23.0625,-0.011111111111099999,0.0,-0.0011111111111099998,0.24,-0.01,-0.4,874.8100001811981,4.620000123977661
189,1517153542.03,100.0,0.11372549019607843,0.14901960784313725,90.1875,6.9375,8.6875,0.0,0.0,0.0,0.0,-36.1875,22.75,-19.5,-0.00666666666667,-0.0144444444444,-0.0188888888889,0.31,0.51,0.56,879.4500000476837,4.639999866485596
190,1517153546.69,93.0,0.21568627450980393,0.1450980392156863,92.5625,8.125,8.6875,0.0,0.0,0.0,0.0,-34.875,21.1875,-21.375,-0.04,0.0166666666667,-0.013333333333299998,-0.79,0.48,0.45,884.1100001335144,4.6600000858306885
191,1517153551.38,90.0,0.27058823529411763,0.2,99.0625,8.125,7.0625,0.0,0.0,0.0,0.0,-33.5,20.0625,-21.5625,0.02,-0.0033333333333300003,-0.023333333333299996,0.01,0.83,0.16,888.8000001907349,4.690000057220459
192,1517153556.05,94.0,0.10980392156862745,0.2235294117647059,104.25,7.0625,6.9375,0.0,0.0,0.0,0.0,-30.0625,19.0625,-24.0625,0.0855555555556,-0.02,-0.0455555555556,-0.48,0.94,-0.02,893.4700000286102,4.669999837875366
193,1517153560.71,96.0,0.6470588235294118,0.21176470588235294,110.375,6.875,7.0,0.0,0.0,0.0,0.0,-28.6875,17.375,-25.5625,-0.0422222222222,-0.008888888888889999,-0.0144444444444,-0.1,-0.31,-0.26,898.1300001144409,4.6600000858306885
194,1517153565.37,98.0,0.396078431372549,0.20392156862745098,116.625,6.8125,7.625,0.0,0.0,0.0,0.0,-27.0,16.375,-25.5625,0.0011111111111099998,0.05333333333330001,-0.023333333333299996,0.36,0.19,0.72,902.789999961853,4.659999847412109
195,1517153570.05,98.0,0.3843137254901961,0.1843137254901961,122.875,6.75,7.4375,0.0,0.0,0.0,0.0,-25.0,16.1875,-18.6875,-0.011111111111099999,0.004444444444439999,-0.02,-0.23,-0.19,0.16,907.4700000286102,4.680000066757202
196,1517153574.69,98.0,0.6431372549019608,0.24705882352941178,128.0,6.875,6.625,0.0,0.0,0.0,0.0,-25.5,17.75,-20.0,-0.0388888888889,0.013333333333299998,0.02,0.26,-0.74,0.0,912.1100001335144,4.640000104904175
197,1517153579.33,99.0,0.11372549019607843,0.18823529411764706,128.625,7.375,6.5625,0.0,0.0,0.0,0.0,-25.0625,15.0,-20.0625,-0.0177777777778,0.00666666666667,0.0022222222222199996,0.36,0.36,-0.35,916.75,4.639999866485596
198,1517153583.99,94.0,0.12156862745098039,0.17254901960784313,128.375,7.875,7.5625,0.0,0.0,0.0,0.0,-24.1875,14.5625,-20.0,0.04666666666669999,0.022222222222199998,0.005555555555560001,-0.54,0.04,0.74,921.4100000858307,4.6600000858306885
199,1517153588.66,91.0,0.6901960784313725,0.24705882352941178,128.4375,7.375,7.8125,0.0,0.0,0.0,0.0,-36.375,1.6875,-27.1875,0.0288888888889,-0.012222222222200001,0.012222222222200001,-0.1,-0.97,-0.11,926.0800001621246,4.670000076293945
200,1517153593.33,96.0,0.7098039215686275,0.24705882352941178,128.625,7.0625,7.9375,0.0,0.0,0.0,0.0,-24.0625,6.1875,-18.6875,-0.0166666666667,-0.036666666666699994,-0.00666666666667,0.0,0.6,-1.49,930.75,4.669999837875366
201,1517153597.98,98.0,0.27450980392156865,0.2784313725490196,128.625,7.0625,8.25,0.0,0.0,0.0,0.0,-24.375,18.875,-28.0625,-0.022222222222199998,-0.024444444444400002,0.0155555555556,0.13,-0.56,0.92,935.4000000953674,4.650000095367432
202,1517153602.65,100.0,0.12549019607843137,0.2235294117647059,128.875,6.3125,8.5,0.0,0.0,0.0,0.0,-25.875,18.1875,-28.5625,0.005555555555560001,0.0177777777778,-0.005555555555560001,-0.08,0.22,-0.4,940.0700001716614,4.670000076293945
203,1517153607.3,92.0,0.10980392156862745,0.14901960784313725,128.875,6.75,8.375,0.0,0.0,0.0,0.0,-26.1875,19.1875,-29.25,0.026666666666700003,-0.0144444444444,-0.0177777777778,-0.02,0.97,-0.34,944.7200000286102,4.6499998569488525
204,1517153611.97,77.0,0.5882352941176471,0.24705882352941178,128.75,7.9375,8.8125,0.0,0.0,0.0,0.0,-25.375,18.6875,-28.6875,-0.0377777777778,0.004444444444439999,0.0177777777778,-0.76,0.21,0.4,949.3900001049042,4.670000076293945
205,1517153616.63,77.0,0.4,0.16862745098039217,128.125,7.125,8.0,0.0,0.0,0.0,0.0,-25.875,15.875,-28.875,-0.151111111111,-0.025555555555599997,0.036666666666699994,-0.3,-1.16,-1.3,954.0500001907349,4.6600000858306885
206,1517153621.27,77.0,0.796078431372549,0.2901960784313726,128.125,7.1875,8.0625,0.0,0.0,0.0,0.0,-27.6875,15.5,-59.875,0.012222222222200001,-0.0455555555556,-0.02,-0.95,0.95,-0.51,958.6900000572205,4.639999866485596
207,1517153625.93,86.0,0.6235294117647059,0.1803921568627451,127.5625,5.6875,8.0625,0.0,0.0,0.0,0.0,-22.5625,17.375,-25.5625,-0.0344444444444,-0.0166666666667,0.0,0.39,-0.14,-0.18,963.3500001430511,4.6600000858306885
208,1517153630.6,87.0,0.2,0.18823529411764706,129.0,7.1875,6.0,0.0,0.0,0.0,0.0,-26.1875,14.75,-18.25,0.0588888888889,-0.025555555555599997,-0.0177777777778,-0.03,1.13,-1.04,968.0199999809265,4.669999837875366
209,1517153635.24,87.0,0.7490196078431373,0.30980392156862746,129.875,7.1875,5.0,0.0,0.0,0.0,0.0,-25.0625,15.0625,-18.75,-0.008888888888889999,0.0011111111111099998,-0.0011111111111099998,-0.3,0.34,0.09,972.6600000858307,4.640000104904175
210,1517153639.95,96.0,0.4549019607843137,0.21568627450980393,129.3125,6.0,5.0,0.0,0.0,0.0,0.0,-25.5,15.0,-19.5625,0.023333333333299996,0.0377777777778,-0.00777777777778,0.8,0.22,1.59,977.3700001239777,4.710000038146973
211,1517153644.59,99.0,0.7058823529411765,0.2627450980392157,129.625,6.1875,5.375,0.0,0.0,0.0,0.0,-24.75,15.75,-19.375,-0.00777777777778,0.022222222222199998,-0.008888888888889999,0.6,-0.15,-0.11,982.0099999904633,4.639999866485596
212,1517153649.22,102.0,0.25882352941176473,0.26666666666666666,129.5625,5.875,5.6875,0.0,0.0,0.0,0.0,-26.6875,15.0,-19.0,-0.00666666666667,-0.0144444444444,-0.0011111111111099998,0.03,0.02,-0.36,986.6400001049042,4.630000114440918
213,1517153653.9,103.0,0.29411764705882354,0.22745098039215686,130.125,6.1875,5.75,0.0,0.0,0.0,0.0,-25.0625,15.75,-19.375,0.0277777777778,-0.012222222222200001,-0.0333333333333,-0.08,0.42,-0.66,991.3200001716614,4.680000066757202
214,1517153658.57,103.0,0.47843137254901963,0.27058823529411763,130.125,6.5625,5.875,0.0,0.0,0.0,0.0,-25.75,14.375,-18.5625,0.011111111111099999,-0.0288888888889,0.0,-0.39,-0.26,-0.89,995.9900000095367,4.669999837875366
215,1517153663.23,105.0,0.5215686274509804,0.21568627450980393,130.375,6.3125,5.8125,0.0,0.0,0.0,0.0,-25.5625,14.375,-18.875,0.0022222222222199996,0.0155555555556,0.0155555555556,-0.13,-0.18,0.84,1000.6500000953674,4.6600000858306885
216,1517153667.93,103.0,0.788235294117647,0.2235294117647059,130.5,6.1875,5.75,0.0,0.0,0.0,0.0,-23.75,15.0,-19.375,0.012222222222200001,0.02,-0.025555555555599997,-0.03,0.36,0.08,1005.3500001430511,4.700000047683716
217,1517153672.59,99.0,0.8431372549019608,0.3176470588235294,130.75,6.875,5.8125,0.0,0.0,0.0,0.0,-23.375,14.5625,-19.0,0.0033333333333300003,-0.026666666666700003,0.0011111111111099998,-0.15,0.8,-0.55,1010.0099999904633,4.659999847412109
218,1517153677.23,101.0,0.8431372549019608,0.16862745098039217,131.0625,6.375,5.5,0.0,0.0,0.0,0.0,-22.6875,14.5,-19.0625,-0.01,-0.0344444444444,-0.004444444444439999,-0.06,0.15,-0.66,1014.6500000953674,4.640000104904175
219,1517153681.9,99.0,0.6392156862745098,0.2980392156862745,130.8125,6.375,5.5,0.0,0.0,0.0,0.0,-23.75,9.0625,-18.25,0.0011111111111099998,-0.0011111111111099998,0.0188888888889,-0.48,0.59,-0.74,1019.3200001716614,4.670000076293945
220,1517153686.57,100.0,0.9803921568627451,0.3686274509803922,130.875,7.0,5.9375,0.0,0.0,0.0,0.0,-23.1875,14.6875,-19.6875,-0.0188888888889,0.0144444444444,-0.0033333333333300003,-1.12,-0.45,-1.35,1023.9900000095367,4.669999837875366
221,1517153691.22,104.0,0.7764705882352941,0.26666666666666666,131.375,7.5,5.625,0.0,0.0,0.0,0.0,-24.875,15.5,-19.6875,-0.0355555555556,-0.01,0.013333333333299998,0.02,-0.74,-0.97,1028.6400001049042,4.650000095367432
222,1517153695.89,106.0,0.3764705882352941,0.24313725490196078,131.625,7.6875,5.9375,0.0,0.0,0.0,0.0,-25.75,15.75,-19.25,-0.0488888888889,0.0388888888889,0.02,-0.38,-0.55,-0.15,1033.3100001811981,4.670000076293945
223,1517153700.52,105.0,0.11764705882352941,0.15294117647058825,131.375,7.75,6.4375,0.0,0.0,0.0,0.0,-23.5,15.25,-18.375,-0.01,-0.0155555555556,0.012222222222200001,0.95,-0.52,0.57,1037.9400000572205,4.629999876022339
224,1517153705.21,96.0,0.8666666666666667,0.2196078431372549,131.75,8.25,6.3125,0.0,0.0,0.0,0.0,-22.5625,14.0,-18.0,0.004444444444439999,-0.0033333333333300003,0.0033333333333300003,-0.3,-0.1,-0.22,1042.630000114441,4.690000057220459
225,1517153709.85,97.0,0.5058823529411764,0.2784313725490196,132.125,8.125,6.375,0.0,0.0,0.0,0.0,-23.1875,14.5625,-17.1875,-0.0211111111111,-0.0211111111111,-0.004444444444439999,-0.85,0.49,-0.94,1047.2699999809265,4.639999866485596
226,1517153714.51,101.0,0.17254901960784313,0.1568627450980392,132.3125,8.4375,6.6875,0.0,0.0,0.0,0.0,-21.6875,14.75,-17.6875,0.0288888888889,-0.011111111111099999,0.0033333333333300003,-0.46,0.36,0.34,1051.9300000667572,4.6600000858306885
227,1517153719.16,99.0,0.10980392156862745,0.15294117647058825,130.8125,9.5625,5.75,0.0,0.0,0.0,0.0,-26.25,11.0,-17.5,0.0177777777778,0.0022222222222199996,0.0377777777778,-0.71,-0.29,-0.09,1056.5800001621246,4.650000095367432
228,1517153723.8,97.0,0.2235294117647059,0.2901960784313726,123.0625,9.5,6.125,0.0,0.0,0.0,0.0,-27.1875,11.0,-16.6875,0.0277777777778,0.0011111111111099998,0.013333333333299998,-0.89,0.36,0.65,1061.2200000286102,4.639999866485596
229,1517153728.46,102.0,0.1450980392156863,0.23529411764705882,115.9375,8.0,7.25,0.0,0.0,0.0,0.0,-27.6875,11.875,-18.1875,-0.05333333333330001,-0.0477777777778,-0.0155555555556,-0.53,0.61,-0.57,1065.880000114441,4.6600000858306885
230,1517153733.08,105.0,0.8352941176470589,0.3333333333333333,114.1875,6.8125,8.25,0.0,0.0,0.0,0.0,-27.0,11.6875,-17.375,0.0333333333333,-0.008888888888889999,-0.04333333333330001,-0.53,1.37,-1.18,1070.5,4.619999885559082
231,1517153737.72,111.0,0.13333333333333333,0.1568627450980392,114.75,6.875,7.9375,0.0,0.0,0.0,0.0,-27.6875,12.5,-17.375,-0.0011111111111099998,-0.0166666666667,0.013333333333299998,0.94,-0.22,-0.36,1075.1400001049042,4.640000104904175
232,1517153742.34,105.0,0.37254901960784315,0.17254901960784313,114.8125,7.875,8.375,0.0,0.0,0.0,0.0,-27.5625,13.5,-18.0,-0.0388888888889,0.0166666666667,-0.0022222222222199996,0.7,0.11,0.8,1079.7599999904633,4.619999885559082
233,1517153746.99,104.0,0.6509803921568628,0.22745098039215686,115.3125,8.4375,7.6875,0.0,0.0,0.0,0.0,-28.0,11.5,-18.1875,-0.0022222222222199996,0.0166666666667,0.0022222222222199996,-0.18,-0.35,-0.34,1084.4100000858307,4.650000095367432
234,1517153751.62,108.0,0.4745098039215686,0.2235294117647059,115.3125,8.4375,7.625,0.0,0.0,0.0,0.0,-48.375,27.0625,-31.25,-0.0211111111111,-0.008888888888889999,-0.0011111111111099998,0.48,0.21,-0.66,1089.039999961853,4.629999876022339
235,1517153756.27,108.0,0.4235294117647059,0.17254901960784313,115.5,7.875,8.1875,0.0,0.0,0.0,0.0,-28.75,15.25,-19.5,-0.0311111111111,0.0,0.008888888888889999,0.33,0.0,0.1,1093.6900000572205,4.650000095367432
236,1517153760.91,105.0,0.4392156862745098,0.17254901960784313,116.0,7.75,7.5625,0.0,0.0,0.0,0.0,-29.25,15.25,-19.75,0.041111111111099996,-0.036666666666699994,-0.0166666666667,0.19,0.26,-0.67,1098.3300001621246,4.640000104904175
237,1517153765.56,100.0,0.13333333333333333,0.15294117647058825,112.6875,8.5,6.9375,0.0,0.0,0.0,0.0,-30.25,15.1875,-18.5,-0.005555555555560001,0.0,0.0188888888889,-0.28,0.16,0.39,1102.9800000190735,4.6499998569488525
238,1517153770.22,97.0,0.4549019607843137,0.19215686274509805,109.375,8.8125,7.375,0.0,0.0,0.0,0.0,-30.25,15.25,-18.25,0.026666666666700003,-0.0277777777778,0.0033333333333300003,0.15,0.46,-1.31,1107.6400001049042,4.6600000858306885
239,1517153774.85,96.0,0.6470588235294118,0.23529411764705882,108.5625,8.75,7.5625,0.0,0.0,0.0,0.0,-31.5,17.875,-15.25,-0.011111111111099999,-0.041111111111099996,0.011111111111099999,-0.14,0.56,1.4,1112.2699999809265,4.629999876022339
240,1517153779.46,98.0,0.807843137254902,0.30980392156862746,109.0625,7.9375,6.8125,1.0,0.0,0.0,0.0,-27.75,16.75,-25.25,-0.06444444444439999,-0.0211111111111,0.0144444444444,-0.39,0.6,-0.72,1116.880000114441,4.610000133514404
241,1517153784.15,103.0,0.10980392156862745,0.15294117647058825,109.0625,7.8125,6.875,0.0,0.0,0.0,0.0,-28.1875,17.375,-23.0,-0.011111111111099999,-0.0166666666667,0.004444444444439999,0.34,0.72,0.09,1121.5700001716614,4.690000057220459
242,1517153788.8,93.0,0.10980392156862745,0.14901960784313725,109.3125,8.5,6.875,0.0,0.0,0.0,0.0,-29.25,17.0,-22.6875,-0.0166666666667,-0.0011111111111099998,0.0022222222222199996,0.18,0.23,-0.16,1126.2200000286102,4.6499998569488525
243,1517153793.44,88.0,0.4980392156862745,0.21176470588235294,109.75,9.4375,6.75,0.0,0.0,0.0,0.0,-31.0625,16.75,-26.6875,-0.0455555555556,0.0177777777778,0.011111111111099999,-0.45,0.21,0.04,1130.8600001335144,4.640000104904175
244,1517153798.06,96.0,0.2823529411764706,0.16470588235294117,109.5625,7.0,5.625,0.0,0.0,0.0,0.0,-31.5,17.375,-25.5,0.0344444444444,-0.025555555555599997,-0.013333333333299998,-0.1,-0.23,-1.26,1135.4800000190735,4.619999885559082
245,1517153802.71,99.0,0.16862745098039217,0.2,109.9375,7.1875,5.375,0.0,0.0,0.0,0.0,-30.1875,17.0,-25.5625,-0.011111111111099999,-0.012222222222200001,-0.008888888888889999,0.31,0.34,-0.48,1140.130000114441,4.650000095367432
246,1517153807.33,98.0,0.10980392156862745,0.14901960784313725,110.125,7.3125,5.875,0.0,0.0,0.0,0.0,-29.875,17.375,-25.25,-0.0522222222222,0.0011111111111099998,-0.005555555555560001,0.0,0.76,-0.45,1144.75,4.619999885559082
247,1517153812.01,93.0,0.6980392156862745,0.1568627450980392,110.75,7.625,5.6875,0.0,0.0,0.0,0.0,-30.0,17.375,-25.0,0.0488888888889,-0.0333333333333,-0.0211111111111,-0.28,0.88,-1.28,1149.4300000667572,4.680000066757202
248,1517153816.68,94.0,0.13725490196078433,0.19215686274509805,110.375,7.0,5.5625,0.0,0.0,0.0,0.0,-30.0,16.0,-17.6875,-0.03,0.04,0.02,-0.27,-0.33,-0.1,1154.1000001430511,4.670000076293945
249,1517153821.37,91.0,0.6352941176470588,0.21176470588235294,110.875,8.4375,6.625,0.0,0.0,0.0,0.0,-29.5625,18.5625,-18.25,-0.0355555555556,0.02,-0.0188888888889,-0.65,0.51,0.07,1158.789999961853,4.68999981880188
250,1517153825.98,94.0,0.4470588235294118,0.20392156862745098,112.75,8.0,8.9375,0.0,0.0,0.0,0.0,-30.0625,17.6875,-19.75,-0.0011111111111099998,0.004444444444439999,-0.0277777777778,0.17,1.02,0.02,1163.4000000953674,4.610000133514404
251,1517153830.63,94.0,0.30980392156862746,0.17254901960784313,116.0,8.25,7.375,0.0,0.0,0.0,0.0,-28.6875,16.0,-18.5625,0.07,-0.0011111111111099998,-0.0155555555556,0.16,-0.4,-0.04,1168.0500001907349,4.650000095367432
252,1517153835.27,91.0,0.4392156862745098,0.27058823529411763,117.3125,8.6875,4.875,0.0,0.0,0.0,0.0,-28.25,13.25,-18.0625,-0.023333333333299996,0.0022222222222199996,0.011111111111099999,-0.7,-0.56,0.21,1172.6900000572205,4.639999866485596
253,1517153839.92,95.0,0.6549019607843137,0.19215686274509805,118.1875,7.8125,5.0,0.0,0.0,0.0,0.0,-28.6875,14.375,-18.1875,-0.036666666666699994,-0.011111111111099999,-0.004444444444439999,-0.19,-0.28,-1.18,1177.340000152588,4.650000095367432
254,1517153844.58,97.0,0.30980392156862746,0.1607843137254902,118.0,8.0,5.125,0.0,0.0,0.0,0.0,-28.75,14.375,-19.0625,0.008888888888889999,-0.0188888888889,0.005555555555560001,-0.1,-0.51,0.78,1182.0,4.659999847412109
255,1517153849.2,95.0,0.4980392156862745,0.22745098039215686,118.3125,8.125,6.0,0.0,0.0,0.0,0.0,-28.375,13.25,-20.0,0.011111111111099999,0.0477777777778,0.005555555555560001,-0.4,-0.32,0.84,1186.6200001239777,4.620000123977661
256,1517153853.84,97.0,0.6549019607843137,0.25098039215686274,118.1875,7.9375,6.1875,0.0,0.0,0.0,0.0,-27.25,14.375,-20.5,-0.012222222222200001,-0.004444444444439999,0.0011111111111099998,-0.03,0.98,-0.34,1191.2599999904633,4.639999866485596
257,1517153858.49,101.0,0.5607843137254902,0.14901960784313725,118.5,7.125,5.5625,0.0,0.0,0.0,0.0,-27.5,14.1875,-20.6875,-0.0033333333333300003,-0.00666666666667,-0.013333333333299998,0.61,-0.28,-0.73,1195.9100000858307,4.650000095367432
258,1517153863.16,96.0,0.5803921568627451,0.30196078431372547,118.6875,7.8125,5.9375,0.0,0.0,0.0,0.0,-28.0625,13.375,-19.25,0.0311111111111,-0.0155555555556,0.0033333333333300003,-0.89,-0.34,-0.5,1200.5800001621246,4.670000076293945
259,1517153867.78,99.0,0.807843137254902,0.25098039215686274,119.125,8.0625,5.875,0.0,0.0,0.0,0.0,-27.5625,14.5,-18.75,0.02,-0.005555555555560001,0.005555555555560001,0.43,-0.46,0.51,1205.2000000476837,4.619999885559082
260,1517153872.45,100.0,0.13333333333333333,0.2627450980392157,118.9375,8.0,6.0,0.0,0.0,0.0,0.0,-27.6875,12.6875,-18.75,0.00777777777778,-0.0344444444444,0.00777777777778,-0.06,0.12,-0.74,1209.8700001239777,4.670000076293945
261,1517153877.11,99.0,0.10980392156862745,0.27450980392156865,119.25,8.25,5.9375,0.0,0.0,0.0,0.0,-29.6875,15.1875,-17.25,0.0011111111111099998,0.01,-0.005555555555560001,-0.64,0.71,-0.3,1214.5299999713898,4.659999847412109
262,1517153881.74,99.0,0.5098039215686274,0.15294117647058825,119.5625,7.75,5.8125,0.0,0.0,0.0,0.0,-29.1875,16.0625,-18.25,-0.04,-0.0211111111111,0.00666666666667,2.07,0.06,-1.27,1219.1600000858307,4.630000114440918
263,1517153886.39,85.0,0.11764705882352941,0.1450980392156863,119.875,8.0,6.0,0.0,0.0,0.0,0.0,-27.5,13.875,-15.75,0.011111111111099999,-0.01,-0.00777777777778,0.47,0.1,-0.98,1223.8100001811981,4.650000095367432
264,1517153891.05,77.0,0.11764705882352941,0.1450980392156863,120.0625,7.9375,5.375,0.0,0.0,0.0,0.0,-28.25,15.5,-14.375,-0.023333333333299996,0.0011111111111099998,0.00777777777778,0.53,-0.49,-0.57,1228.4700000286102,4.659999847412109
265,1517153895.69,61.0,0.13725490196078433,0.1411764705882353,119.875,9.3125,5.5625,0.0,0.0,0.0,0.0,-28.1875,15.0625,-18.5625,-0.0333333333333,0.0166666666667,0.01,-0.74,0.72,-0.12,1233.1100001335144,4.640000104904175
266,1517153900.35,56.0,0.45098039215686275,0.25882352941176473,120.3125,7.875,4.8125,0.0,0.0,0.0,0.0,-28.5625,15.875,-18.5625,0.0166666666667,0.0288888888889,-0.0211111111111,-0.79,0.5,-0.23,1237.7699999809265,4.659999847412109
267,1517153905.0,59.0,0.12156862745098039,0.1450980392156863,120.375,7.4375,5.1875,0.0,0.0,0.0,0.0,-28.1875,13.375,-17.0,-0.00666666666667,0.0033333333333300003,0.011111111111099999,-0.11,0.02,-0.3,1242.420000076294,4.650000095367432
268,1517153909.65,50.0,0.35294117647058826,0.20784313725490197,120.375,8.3125,5.6875,0.0,0.0,0.0,0.0,-29.375,14.75,-17.0625,-0.0211111111111,-0.00777777777778,0.011111111111099999,0.07,-0.37,-0.27,1247.0700001716614,4.650000095367432
269,1517153914.3,59.0,0.7372549019607844,0.28627450980392155,120.25,4.5625,4.9375,0.0,0.0,0.0,0.0,-30.0,18.0625,-17.75,-0.0311111111111,0.012222222222200001,0.0033333333333300003,-0.22,0.4,-0.51,1251.7200000286102,4.6499998569488525
270,1517153918.95,72.0,0.7176470588235294,0.2784313725490196,120.75,4.25,4.9375,0.0,0.0,0.0,0.0,-28.875,14.875,-16.875,0.011111111111099999,-0.0355555555556,-0.004444444444439999,-0.53,0.37,-1.16,1256.3700001239777,4.650000095367432
271,1517153923.59,83.0,0.6784313725490196,0.2784313725490196,120.75,4.5,4.8125,0.0,0.0,0.0,0.0,-28.75,15.0,-16.5625,-0.02,0.023333333333299996,0.0022222222222199996,0.09,-0.46,0.1,1261.0099999904633,4.639999866485596
272,1517153928.23,88.0,0.7843137254901961,0.14901960784313725,121.0625,4.9375,5.375,0.0,0.0,0.0,0.0,-28.875,15.25,-20.1875,-0.0333333333333,-0.0155555555556,0.0144444444444,0.48,-0.63,0.01,1265.6500000953674,4.640000104904175
273,1517153932.91,89.0,0.5098039215686274,0.2196078431372549,122.5625,6.5,8.125,0.0,0.0,0.0,0.0,-27.0,17.5625,-20.75,0.0777777777778,-0.0188888888889,-0.036666666666699994,-0.18,1.86,-0.4,1270.3300001621246,4.680000066757202
274,1517153937.58,96.0,0.18823529411764706,0.15294117647058825,126.25,6.0,7.6875,0.0,0.0,0.0,0.0,-26.1875,15.875,-19.0625,-0.0033333333333300003,0.0288888888889,-0.013333333333299998,0.1,0.42,0.41,1275.0,4.669999837875366
275,1517153942.24,95.0,0.6588235294117647,0.2,129.125,7.0,5.75,0.0,0.0,0.0,0.0,-27.75,13.5,-17.75,0.06888888888889999,-0.044444444444399996,-0.0188888888889,-1.11,1.02,-1.06,1279.6600000858307,4.6600000858306885
276,1517153946.89,98.0,0.2235294117647059,0.17254901960784313,129.5625,6.6875,4.125,0.0,0.0,0.0,0.0,-26.75,14.0625,-19.0,0.0588888888889,-0.025555555555599997,-0.0277777777778,-0.07,1.1,-0.44,1284.3100001811981,4.650000095367432
277,1517153951.53,97.0,0.2784313725490196,0.19607843137254902,130.25,6.5,4.375,0.0,0.0,0.0,0.0,-25.1875,12.75,-18.875,-0.008888888888889999,0.00777777777778,0.013333333333299998,0.54,0.29,-0.79,1288.9500000476837,4.639999866485596
278,1517153956.21,92.0,0.1568627450980392,0.1607843137254902,130.125,6.375,5.0625,0.0,0.0,0.0,0.0,-26.0,12.6875,-19.0625,-0.01,0.0166666666667,-0.023333333333299996,0.77,-0.04,0.1,1293.630000114441,4.680000066757202
279,1517153960.86,87.0,0.8941176470588236,0.25098039215686274,130.625,6.625,5.0,0.0,0.0,0.0,0.0,-26.25,13.25,-18.0625,0.0,0.0,0.0155555555556,-0.58,0.26,-0.69,1298.2799999713898,4.6499998569488525
280,1517153965.49,87.0,0.611764705882353,0.29411764705882354,130.5,6.4375,5.5625,0.0,0.0,0.0,0.0,-27.0,11.6875,-17.875,0.0655555555556,-0.036666666666699994,-0.005555555555560001,0.01,-0.13,-0.67,1302.9100000858307,4.630000114440918
281,1517153970.16,91.0,0.7803921568627451,0.27058823529411763,130.875,7.125,5.375,0.0,0.0,0.0,0.0,-25.875,13.0625,-17.5,-0.00666666666667,0.0333333333333,-0.01,-0.13,1.49,-0.78,1307.5800001621246,4.670000076293945
