,date,speed,engine_load,throttle,heading,roll,pitch,sys,gyro,accel,mag,magx,magy,magz,gyrx,gyry,gyrz,linaccx,linaccy,linaxxz,time,time_diff
26,1517156384.33,9.0,0.34901960784313724,0.1568627450980392,41.9375,-17.0625,5.6875,0,3,1,0,-36.0625,-15.375,-22.5,-0.0166666666667,0.013333333333299998,0.025555555555599997,0.25,0.26,0.52,0.0,
27,1517156389.01,11.0,0.34901960784313724,0.1568627450980392,65.625,-13.9375,3.0625,0,3,1,0,-18.0625,-5.75,-8.25,-0.111111111111,-0.011111111111099999,0.41555555555600004,-0.2,-0.15,0.35,4.680000066757202,4.680000066757202
28,1517156393.67,9.0,0.35294117647058826,0.1568627450980392,355.625,-12.6875,3.5625,0,3,1,0,-4.1875,8.75,7.375,-0.116666666667,-0.0477777777778,0.427777777778,-0.53,0.43,-0.37,9.34000015258789,4.6600000858306885
29,1517156398.3,11.0,0.2980392156862745,0.1568627450980392,279.3125,-11.625,4.5,1,3,1,0,17.0625,-17.6875,7.375,-0.012222222222200001,0.025555555555599997,0.04333333333330001,-1.0,0.22,-0.22,13.97000002861023,4.629999876022339
30,1517156402.96,11.0,0.2980392156862745,0.1568627450980392,261.3125,-13.875,3.0,2,3,1,0,16.5625,-24.5625,5.0625,-0.0677777777778,-0.00777777777778,0.42888888888899995,-0.44,0.49,0.07,18.630000114440918,4.6600000858306885
31,1517156407.64,11.0,0.30196078431372547,0.1568627450980392,179.375,-11.3125,3.6875,0,3,1,0,-10.5625,-13.375,14.5,-0.121111111111,-0.11,0.51,0.53,0.46,0.08,23.31000018119812,4.680000066757202
32,1517156412.3,11.0,0.30196078431372547,0.1568627450980392,94.125,-11.5,5.0625,0,3,1,0,-12.25,-0.0625,17.1875,0.023333333333299996,-0.024444444444400002,0.01,0.43,0.4,-0.12,27.97000002861023,4.659999847412109
33,1517156416.94,11.0,0.32941176470588235,0.1568627450980392,80.25,-14.125,2.5625,0,3,1,0,-9.0,5.0625,12.0625,-0.06666666666669999,0.012222222222200001,0.26333333333299996,-0.26,0.1,0.31,32.610000133514404,4.640000104904175
34,1517156421.61,6.0,0.3686274509803922,0.1568627450980392,25.8125,-12.625,1.25,0,3,1,0,-14.0625,23.5625,18.5625,-0.02,0.0033333333333300003,0.0655555555556,-0.39,0.51,0.57,37.27999997138977,4.669999837875366
35,1517156426.25,1.0,0.37254901960784315,0.15294117647058825,353.0,-13.75,-1.1875,0,3,1,0,-6.75,14.0,25.5,-0.0033333333333300003,0.005555555555560001,-0.0033333333333300003,-0.18,-0.03,0.53,41.920000076293945,4.640000104904175
37,1517156435.58,2.0,0.403921568627451,0.18823529411764706,356.3125,-16.4375,3.375,0,3,1,0,-10.5,16.0,48.5,0.0777777777778,0.0355555555556,-0.20777777777800002,0.4,0.4,-0.12,51.25,9.329999923706055
38,1517156440.26,13.0,0.4823529411764706,0.20392156862745098,65.375,-16.125,10.3125,0,3,0,0,-13.6875,2.875,0.25,0.041111111111099996,-0.01,-0.2,-0.17,1.03,0.04,55.9300000667572,4.680000066757202
39,1517156444.93,21.0,0.28627450980392155,0.1568627450980392,96.3125,-15.375,8.6875,2,3,0,0,-74.6875,-11.875,-14.5,-0.06,0.0333333333333,0.02,-0.06,0.61,1.24,60.60000014305115,4.670000076293945
40,1517156449.61,21.0,0.2549019607843137,0.1607843137254902,103.8125,-15.0,7.75,2,3,0,0,-68.5,-7.0,-16.1875,0.01,-0.0177777777778,-0.0177777777778,-0.13,1.38,0.32,65.27999997138977,4.679999828338623
41,1517156454.3,12.0,0.3686274509803922,0.1607843137254902,107.375,-14.5625,3.875,1,3,0,0,-60.0625,-16.1875,-16.0625,0.0166666666667,0.0211111111111,-0.0611111111111,0.09,-0.36,-0.29,69.97000002861023,4.690000057220459
42,1517156458.9,2.0,0.36470588235294116,0.1607843137254902,125.8125,-15.0,0.375,0,3,0,0,-54.5625,-18.0625,-18.5625,-0.026666666666700003,-0.0144444444444,0.013333333333299998,0.06,-1.08,0.14,74.57000017166138,4.6000001430511475
43,1517156463.56,14.0,0.18823529411764706,0.16470588235294117,121.4375,-14.625,8.875,3,3,0,0,-32.5,0.25,-14.1875,-0.025555555555599997,-0.0922222222222,0.0177777777778,-1.29,0.82,-0.47,79.23000001907349,4.659999847412109
44,1517156468.21,10.0,0.3333333333333333,0.16470588235294117,69.25,-13.5,7.9375,0,3,0,0,-26.375,2.5,-12.875,-0.005555555555560001,-0.0166666666667,-0.00666666666667,0.09,-0.23,0.38,83.88000011444092,4.650000095367432
45,1517156472.85,2.0,0.3568627450980392,0.16470588235294117,67.875,-13.5,1.0625,0,3,0,0,-26.75,0.6875,-15.0,0.00777777777778,0.00777777777778,0.0011111111111099998,0.12,-0.43,-0.28,88.51999998092651,4.639999866485596
47,1517156482.16,1.0,0.36470588235294116,0.16470588235294117,70.0625,-12.625,2.6875,0,3,0,0,-28.875,0.875,-14.1875,0.0166666666667,0.0011111111111099998,0.012222222222200001,0.01,0.16,0.02,97.83000016212463,9.31000018119812
48,1517156486.83,6.0,0.3764705882352941,0.16470588235294117,72.375,-14.8125,3.125,0,3,0,0,-25.375,0.6875,-16.1875,0.004444444444439999,-0.005555555555560001,0.0022222222222199996,-0.13,-0.15,0.47,102.5,4.669999837875366
51,1517156500.77,13.0,0.3254901960784314,0.19215686274509805,73.375,-15.5,5.9375,0,3,0,0,-22.875,8.875,-18.25,-0.0488888888889,-0.0455555555556,0.324444444444,1.57,-0.51,0.64,116.44000005722046,13.940000057220459
52,1517156505.41,22.0,0.49411764705882355,0.2,18.875,-10.5,6.75,0,3,0,0,-48.875,-6.5,-13.0625,-0.0033333333333300003,0.0144444444444,0.0422222222222,-0.55,0.72,-0.18,121.08000016212463,4.640000104904175
53,1517156510.09,33.0,0.4470588235294118,0.21176470588235294,351.3125,-12.0625,8.0,0,3,0,0,-39.75,-4.0,-15.0,0.145555555556,-0.04333333333330001,-0.0033333333333300003,-3.79,1.0,4.22,125.75999999046326,4.679999828338623
54,1517156514.78,40.0,0.47058823529411764,0.1568627450980392,351.3125,-11.8125,7.6875,0,3,0,0,-40.1875,0.6875,-14.6875,0.13555555555600002,-0.131111111111,0.004444444444439999,1.88,-0.66,3.06,130.45000004768372,4.690000057220459
55,1517156519.44,35.0,0.22745098039215686,0.1607843137254902,351.25,-12.6875,7.125,0,3,0,0,-37.6875,-2.0,-15.0,0.0155555555556,0.0911111111111,-0.113333333333,-1.05,0.54,-0.58,135.1100001335144,4.6600000858306885
56,1517156524.1,23.0,0.4823529411764706,0.23529411764705882,9.9375,-17.9375,2.0,0,3,0,0,-26.6875,3.25,-11.875,0.0333333333333,-0.011111111111099999,-0.01,0.04,-0.6,-0.76,139.7699999809265,4.659999847412109
57,1517156528.73,35.0,0.5058823529411764,0.2235294117647059,62.375,-17.875,7.375,0,3,0,0,-26.0625,8.1875,-15.875,-0.012222222222200001,0.04333333333330001,0.00777777777778,-0.4,0.26,-0.43,144.40000009536743,4.630000114440918
58,1517156533.42,44.0,0.5647058823529412,0.21568627450980393,62.1875,-16.875,6.4375,0,3,0,0,-27.75,7.875,-19.6875,0.15888888888900002,-0.133333333333,0.02,3.47,-3.19,1.49,149.0900001525879,4.690000057220459
59,1517156538.07,49.0,0.5803921568627451,0.17647058823529413,61.625,-16.9375,6.125,0,3,0,0,-26.375,8.875,-13.5625,0.026666666666700003,-0.04333333333330001,0.005555555555560001,0.51,0.73,-0.88,153.74000000953674,4.6499998569488525
60,1517156542.73,50.0,0.16862745098039217,0.1450980392156863,62.125,-15.6875,5.3125,0,3,0,0,-26.1875,4.375,-17.0,-0.011111111111099999,0.0333333333333,0.0022222222222199996,-0.11,0.31,-0.06,158.40000009536743,4.6600000858306885
61,1517156547.36,45.0,0.13725490196078433,0.16470588235294117,62.3125,-15.625,3.6875,0,3,0,0,-31.6875,8.6875,-16.5,0.0155555555556,-0.0588888888889,0.0,0.75,0.64,-0.19,163.02999997138977,4.629999876022339
62,1517156552.0,39.0,0.14901960784313725,0.1607843137254902,62.8125,-15.0625,2.75,1,3,0,0,-31.6875,7.0625,-16.25,0.004444444444439999,-0.05333333333330001,-0.0588888888889,-0.1,0.32,-0.45,167.67000007629395,4.640000104904175
63,1517156556.67,34.0,0.24705882352941178,0.15294117647058825,74.25,-15.0625,3.0,1,3,0,0,-33.375,6.1875,-12.5,-0.012222222222200001,-0.0211111111111,0.0422222222222,0.19,0.94,-0.16,172.3400001525879,4.670000076293945
64,1517156561.32,23.0,0.2784313725490196,0.15294117647058825,69.6875,-13.0625,0.25,0,3,0,0,-31.375,8.5625,-14.75,-0.0544444444444,0.013333333333299998,0.00666666666667,0.23,0.33,-0.82,176.99000000953674,4.6499998569488525
65,1517156565.96,3.0,0.3176470588235294,0.14901960784313725,62.9375,-12.4375,-2.5625,0,3,0,0,-129.1875,-13.75,-29.0625,0.011111111111099999,-0.00666666666667,0.0011111111111099998,0.02,-0.26,0.13,181.63000011444092,4.640000104904175
75,1517156612.64,2.0,0.2901960784313726,0.1607843137254902,62.625,-14.5,3.0,0,3,0,0,-75.5625,-7.6875,-14.6875,-0.0033333333333300003,0.0011111111111099998,-0.00666666666667,0.09,0.04,-0.23,228.31000018119812,46.6800000667572
76,1517156617.3,6.0,0.3176470588235294,0.1843137254901961,62.6875,-14.3125,2.9375,0,3,0,0,-74.1875,-6.5625,-13.875,-0.0033333333333300003,-0.00777777777778,-0.00666666666667,-0.13,-0.3,0.28,232.97000002861023,4.659999847412109
77,1517156621.95,19.0,0.49411764705882355,0.1803921568627451,63.75,-14.75,8.125,0,3,0,0,-71.375,-8.5625,-9.6875,0.0155555555556,-0.044444444444399996,0.01,0.54,0.21,-0.37,237.62000012397766,4.650000095367432
78,1517156626.59,29.0,0.615686274509804,0.25098039215686274,63.5625,-15.3125,5.8125,0,3,0,0,-76.75,-4.5625,-20.1875,-0.0388888888889,0.00777777777778,-0.00777777777778,-0.22,0.86,0.15,242.25999999046326,4.639999866485596
79,1517156631.26,44.0,0.49019607843137253,0.17647058823529413,64.0,-14.6875,6.375,0,3,0,0,-67.75,-9.6875,-9.1875,0.0,-0.013333333333299998,0.0011111111111099998,0.41,0.52,-0.1,246.9300000667572,4.670000076293945
80,1517156635.91,40.0,0.6078431372549019,0.23529411764705882,63.6875,-14.375,5.0,0,3,0,0,-71.0625,-3.375,-10.375,0.0022222222222199996,0.05,-0.005555555555560001,-1.13,-0.71,-0.08,251.58000016212463,4.650000095367432
81,1517156640.58,44.0,0.7450980392156863,0.2196078431372549,65.0,-15.1875,6.0,0,3,0,0,-57.0,4.1875,-17.875,0.10111111111099999,0.0022222222222199996,0.0155555555556,0.24,-0.8,1.6,256.25,4.669999837875366
82,1517156645.23,49.0,0.5333333333333333,0.24313725490196078,69.125,-14.8125,4.25,0,3,0,0,-55.6875,13.0,-35.0625,-0.0333333333333,0.023333333333299996,-0.011111111111099999,-0.22,-0.38,0.04,260.90000009536743,4.650000095367432
83,1517156649.89,58.0,0.19607843137254902,0.1450980392156863,71.9375,-13.3125,3.375,0,3,0,0,-64.5625,0.375,-32.75,-0.02,-0.024444444444400002,-0.022222222222199998,0.09,0.39,0.52,265.5600001811981,4.6600000858306885
84,1517156654.54,53.0,0.16470588235294117,0.1568627450980392,76.125,-13.8125,1.25,0,3,0,0,-56.0,5.1875,-58.5,-0.0633333333333,-0.07333333333330001,-0.0344444444444,0.93,-0.41,-0.58,270.210000038147,4.6499998569488525
85,1517156659.17,51.0,0.44313725490196076,0.21176470588235294,77.75,-14.875,1.125,0,3,0,0,-66.5,-4.375,-33.875,0.005555555555560001,-0.0033333333333300003,-0.0333333333333,-0.17,-0.34,-0.03,274.8400001525879,4.630000114440918
86,1517156663.81,55.0,0.8117647058823529,0.3058823529411765,77.8125,-15.4375,1.3125,0,3,0,0,-62.0625,-2.0,-38.75,0.02,-0.0144444444444,-0.013333333333299998,-0.34,-0.69,0.26,279.4800000190735,4.639999866485596
87,1517156668.5,67.0,0.7803921568627451,0.2980392156862745,80.9375,-15.625,3.1875,0,3,0,0,-67.75,-10.375,-42.875,0.012222222222200001,-0.008888888888889999,-0.00777777777778,0.41,-0.29,-0.23,284.17000007629395,4.690000057220459
88,1517156673.14,79.0,0.7607843137254902,0.30980392156862746,81.6875,-15.625,3.5625,0,3,0,0,-31.5625,-35.25,-46.1875,-0.008888888888889999,0.0022222222222199996,0.0011111111111099998,0.61,-0.39,0.18,288.8100001811981,4.640000104904175
89,1517156677.78,88.0,0.7568627450980392,0.3176470588235294,82.1875,-15.5625,3.5,0,3,0,0,-65.5625,-6.6875,-51.0625,0.0311111111111,0.024444444444400002,0.0022222222222199996,0.08,-0.03,-1.13,293.4500000476837,4.639999866485596
90,1517156682.42,97.0,0.7607843137254902,0.30980392156862746,82.0625,-15.75,2.875,0,3,0,0,-83.5,-9.5,-17.5625,0.0844444444444,0.0611111111111,-0.005555555555560001,-1.69,-0.22,0.77,298.0900001525879,4.640000104904175
91,1517156687.06,98.0,0.12549019607843137,0.14901960784313725,81.8125,-15.6875,2.8125,0,3,0,0,-51.6875,-9.75,-9.375,-0.04,-0.0811111111111,-0.044444444444399996,-0.49,0.0,0.26,302.7300000190735,4.639999866485596
92,1517156691.7,93.0,0.7607843137254902,0.2823529411764706,84.8125,-14.6875,2.0,0,3,0,0,-64.0,-24.1875,-19.5625,-0.01,0.0355555555556,-0.0144444444444,-0.23,-0.37,-0.79,307.37000012397766,4.640000104904175
93,1517156696.38,95.0,0.13333333333333333,0.15294117647058825,82.1875,-14.8125,1.6875,0,3,0,0,-66.25,-9.0,-23.875,-0.004444444444439999,-0.008888888888889999,-0.0488888888889,-0.87,0.22,0.64,312.05000019073486,4.680000066757202
94,1517156701.04,87.0,0.5215686274509804,0.2627450980392157,88.75,-14.6875,0.75,0,3,0,0,-58.0,-32.5625,-0.375,0.0033333333333300003,0.0311111111111,-0.0355555555556,-0.88,0.31,-0.44,316.710000038147,4.659999847412109
95,1517156705.7,86.0,0.6392156862745098,0.26666666666666666,97.3125,-17.5,0.375,0,3,0,0,-42.6875,-29.875,-25.375,-0.0544444444444,0.0277777777778,-0.024444444444400002,0.7,-0.53,1.04,321.37000012397766,4.6600000858306885
96,1517156710.36,88.0,0.8196078431372549,0.27450980392156865,98.3125,-16.375,1.0,0,3,0,0,-46.75,-34.0625,-21.875,-0.0311111111111,-0.0155555555556,0.0011111111111099998,0.06,-0.68,0.59,326.02999997138977,4.659999847412109
97,1517156715.03,92.0,0.807843137254902,0.2235294117647059,96.625,-17.625,1.0625,0,3,0,0,-18.5625,-32.5,-48.5625,0.024444444444400002,-0.0166666666667,0.0288888888889,0.06,-0.32,0.06,330.7000000476837,4.670000076293945
98,1517156719.68,95.0,0.18823529411764706,0.3137254901960784,89.875,-15.0,1.375,0,3,0,0,-32.5625,-8.25,-30.875,-0.0166666666667,0.0655555555556,0.012222222222200001,-1.18,0.26,-0.67,335.35000014305115,4.650000095367432
99,1517156724.32,97.0,0.4588235294117647,0.14901960784313725,88.625,-12.6875,2.125,0,3,0,0,-34.375,-12.0625,-30.5,0.0211111111111,-0.02,0.008888888888889999,0.33,0.99,0.78,339.99000000953674,4.639999866485596
100,1517156728.97,89.0,0.5215686274509804,0.2901960784313726,86.9375,-12.25,0.6875,0,3,0,0,-34.5,-15.0625,-33.75,-0.026666666666700003,0.0022222222222199996,-0.0277777777778,-0.68,-0.63,-0.84,344.6400001049042,4.650000095367432
101,1517156733.63,93.0,0.5137254901960784,0.2627450980392157,89.0625,-13.0625,0.125,0,3,0,0,-40.1875,-26.875,-52.5,0.004444444444439999,0.0144444444444,-0.0211111111111,0.01,-0.37,-0.08,349.30000019073486,4.6600000858306885
102,1517156738.3,96.0,0.5058823529411764,0.20392156862745098,94.3125,-15.875,-0.375,0,3,0,0,-34.75,-26.0,-39.0625,-0.0022222222222199996,0.0333333333333,0.0177777777778,0.2,-0.01,0.72,353.97000002861023,4.669999837875366
103,1517156742.98,95.0,0.7803921568627451,0.24705882352941178,95.0625,-16.8125,-0.375,0,3,0,0,-36.75,-20.1875,-35.0625,-0.0022222222222199996,0.005555555555560001,0.041111111111099996,0.94,-0.08,0.07,358.65000009536743,4.680000066757202
104,1517156747.64,98.0,0.7019607843137254,0.2784313725490196,85.75,-14.4375,0.5,0,3,0,0,-65.0625,-9.75,-20.6875,-0.026666666666700003,0.0288888888889,0.0377777777778,0.83,-0.53,-0.62,363.3100001811981,4.6600000858306885
105,1517156752.28,99.0,0.25098039215686274,0.25098039215686274,76.4375,-13.1875,0.3125,0,3,0,0,-60.875,-6.375,-22.5625,0.0344444444444,-0.0955555555556,-0.004444444444439999,1.12,0.02,-0.73,367.9500000476837,4.639999866485596
106,1517156756.96,100.0,0.7019607843137254,0.23137254901960785,76.4375,-12.625,0.9375,0,3,0,0,-58.5,-9.25,-16.6875,-0.011111111111099999,-0.111111111111,-0.013333333333299998,1.47,-0.14,2.69,372.6300001144409,4.680000066757202
107,1517156761.62,101.0,0.45098039215686275,0.21176470588235294,76.4375,-12.5625,0.625,0,3,0,0,-64.0,-10.375,-28.75,0.0577777777778,-0.148888888889,0.0033333333333300003,4.12,0.25,-4.56,377.289999961853,4.659999847412109
108,1517156766.27,99.0,0.39215686274509803,0.25098039215686274,76.125,-12.5,0.9375,0,3,0,0,-60.0625,-10.75,-26.875,0.0344444444444,-0.022222222222199998,0.0033333333333300003,-0.31,-0.16,0.4,381.94000005722046,4.650000095367432
109,1517156770.91,98.0,0.3254901960784314,0.18823529411764706,76.0,-12.4375,0.6875,0,3,0,0,-71.1875,-9.75,-35.5,-0.012222222222200001,-0.0844444444444,0.0211111111111,1.38,-0.12,-0.86,386.58000016212463,4.640000104904175
110,1517156775.54,94.0,0.1450980392156863,0.17254901960784313,76.0625,-12.125,-0.8125,0,3,0,0,-70.6875,-6.25,-26.375,-0.00777777777778,-0.0033333333333300003,-0.005555555555560001,-0.83,0.32,-0.16,391.210000038147,4.629999876022339
111,1517156780.22,94.0,0.4666666666666667,0.18823529411764706,76.4375,-12.75,-2.0625,0,3,0,0,-67.75,-5.25,-28.0625,-0.0355555555556,0.02,-0.013333333333299998,-0.59,-0.03,-0.07,395.8900001049042,4.680000066757202
112,1517156784.9,97.0,0.5411764705882353,0.3058823529411765,75.75,-12.5625,-3.375,0,3,0,0,-66.6875,-4.25,-28.0625,0.00666666666667,0.041111111111099996,-0.00666666666667,-2.0,-0.3,-0.04,400.5700001716614,4.680000066757202
113,1517156789.57,103.0,0.803921568627451,0.17647058823529413,76.625,-12.3125,-3.5625,0,3,0,0,-68.25,-4.75,-29.375,0.0033333333333300003,0.0488888888889,0.02,-1.2,-0.09,0.95,405.24000000953674,4.669999837875366
114,1517156794.25,103.0,0.6941176470588235,0.3254901960784314,76.3125,-12.1875,-3.125,0,3,0,0,-66.25,-4.5,-29.5625,-0.0288888888889,-0.01,-0.0144444444444,-1.31,0.1,-0.02,409.92000007629395,4.680000066757202
115,1517156798.93,107.0,0.12941176470588237,0.2235294117647059,76.9375,-12.4375,-2.5,0,3,0,0,-67.5,-5.0625,-30.5,-0.0033333333333300003,-0.0011111111111099998,-0.0611111111111,-1.87,-0.04,0.6,414.60000014305115,4.680000066757202
116,1517156803.6,107.0,0.6392156862745098,0.24705882352941178,87.375,-11.3125,-2.3125,2,3,0,0,-58.0625,-7.75,-25.5,0.0455555555556,0.012222222222200001,-0.0777777777778,-2.13,0.31,-0.71,419.2699999809265,4.669999837875366
117,1517156808.26,110.0,0.7568627450980392,0.26666666666666666,103.875,-16.0625,-2.625,2,3,0,0,-72.75,-12.875,-18.875,-0.013333333333299998,0.01,-0.0455555555556,-0.55,-0.17,-1.48,423.9300000667572,4.6600000858306885
118,1517156812.9,113.0,0.6784313725490196,0.25882352941176473,116.25,-16.1875,-1.375,0,3,0,0,-66.0625,-16.875,-16.5625,0.026666666666700003,0.0277777777778,-0.0311111111111,0.06,0.75,-0.53,428.5700001716614,4.640000104904175
119,1517156817.57,111.0,0.10980392156862745,0.15294117647058825,127.625,-19.375,-1.875,0,3,0,0,-58.6875,-17.375,-16.25,0.004444444444439999,-0.03,0.0277777777778,2.66,0.51,-0.11,433.24000000953674,4.669999837875366
120,1517156822.25,100.0,0.10980392156862745,0.15294117647058825,126.5,-18.0625,-2.3125,0,3,0,0,-66.0,-12.75,-9.1875,0.025555555555599997,0.0388888888889,0.008888888888889999,0.9,-0.11,-1.91,437.92000007629395,4.680000066757202
121,1517156826.89,94.0,0.27450980392156865,0.23137254901960785,127.5,-18.3125,-3.0625,0,3,0,0,-59.25,-18.5,-15.6875,-0.023333333333299996,-0.008888888888889999,-0.00666666666667,0.51,0.13,0.68,442.5600001811981,4.640000104904175
122,1517156831.54,91.0,0.5254901960784314,0.24313725490196078,128.0625,-17.5,-3.4375,0,3,0,0,-59.75,-20.1875,-16.75,0.022222222222199998,0.0177777777778,-0.0022222222222199996,-0.23,-0.25,0.62,447.210000038147,4.6499998569488525
123,1517156836.19,95.0,0.7176470588235294,0.2,128.5,-16.8125,-3.375,0,3,0,0,-57.0,-17.5625,-15.5625,0.0333333333333,0.0211111111111,0.0011111111111099998,-0.05,0.1,-0.6,451.8600001335144,4.650000095367432
124,1517156840.84,100.0,0.6862745098039216,0.2980392156862745,128.3125,-17.1875,-3.75,0,3,0,0,-57.875,-19.0,-17.375,-0.005555555555560001,-0.0333333333333,0.022222222222199998,0.91,-0.86,-0.39,456.50999999046326,4.6499998569488525
125,1517156845.48,106.0,0.8509803921568627,0.17254901960784313,127.1875,-16.5625,-2.5625,0,3,0,0,-58.0,-18.25,-17.6875,-0.023333333333299996,-0.0011111111111099998,0.004444444444439999,-0.05,0.44,-0.41,461.15000009536743,4.640000104904175
126,1517156850.13,107.0,0.5607843137254902,0.15294117647058825,123.0,-15.5625,-2.5625,0,3,0,0,-55.875,-14.25,-17.25,0.0333333333333,-0.0811111111111,0.024444444444400002,1.55,-0.59,0.58,465.80000019073486,4.650000095367432
127,1517156854.79,100.0,0.17254901960784313,0.23529411764705882,119.125,-15.375,-3.0,0,3,0,0,-56.0,-12.875,-19.0625,-0.0277777777778,0.013333333333299998,0.00666666666667,0.22,-0.81,-0.93,470.460000038147,4.659999847412109
128,1517156859.44,100.0,0.8352941176470589,0.24705882352941178,116.375,-15.3125,-2.5625,0,3,0,0,-54.875,-12.75,-17.875,0.0555555555556,0.044444444444399996,0.012222222222200001,-1.18,-0.02,-0.29,475.1100001335144,4.650000095367432
129,1517156864.07,103.0,0.8470588235294118,0.3215686274509804,113.25,-15.625,-2.6875,0,3,0,0,-53.0625,-11.75,-19.0625,0.0144444444444,0.005555555555560001,-0.00666666666667,-0.94,0.35,0.59,479.74000000953674,4.629999876022339
130,1517156868.75,107.0,0.8196078431372549,0.23529411764705882,112.3125,-14.3125,-2.25,0,3,0,0,-70.0625,-14.0625,-18.75,0.004444444444439999,0.0033333333333300003,0.026666666666700003,0.68,0.25,0.8,484.42000007629395,4.680000066757202
131,1517156873.41,107.0,0.4745098039215686,0.2,106.25,-13.75,-3.125,2,3,0,0,-75.25,-13.6875,-17.0625,0.06666666666669999,-0.0555555555556,0.0011111111111099998,0.77,-0.45,-1.05,489.08000016212463,4.6600000858306885
132,1517156878.07,107.0,0.6666666666666666,0.22745098039215686,105.3125,-13.25,-4.3125,3,3,0,0,-72.5,-15.5,-18.5,0.0277777777778,-0.01,0.04,1.01,-0.14,-0.5,493.74000000953674,4.659999847412109
133,1517156882.73,109.0,0.6627450980392157,0.24705882352941178,98.625,-11.75,-1.5625,3,3,0,0,-71.0625,-11.75,-17.0625,0.0211111111111,-0.00666666666667,0.0288888888889,0.06,-0.05,0.64,498.40000009536743,4.6600000858306885
134,1517156887.39,107.0,0.47843137254901963,0.1803921568627451,93.125,-11.25,-0.5,2,3,0,0,-57.875,-5.5625,-38.25,0.0155555555556,0.07111111111110001,0.011111111111099999,-0.91,0.38,0.42,503.0600001811981,4.6600000858306885
135,1517156892.03,106.0,0.7764705882352941,0.2901960784313726,88.625,-12.8125,-3.5625,2,3,0,0,-65.6875,-5.25,-24.5625,0.0166666666667,0.036666666666699994,0.0188888888889,-0.9,0.35,0.52,507.7000000476837,4.639999866485596
136,1517156896.68,110.0,0.23137254901960785,0.1607843137254902,86.0,-12.875,-3.0,2,3,0,0,-65.75,-3.25,-25.375,0.013333333333299998,-0.0022222222222199996,0.025555555555599997,0.12,0.75,0.12,512.3500001430511,4.650000095367432
137,1517156901.36,104.0,0.10980392156862745,0.15294117647058825,81.4375,-13.3125,-2.0625,1,3,0,0,-62.1875,-2.0625,-24.375,-0.044444444444399996,0.022222222222199998,0.0,-0.41,0.71,0.5,517.0299999713898,4.679999828338623
138,1517156905.99,94.0,0.4588235294117647,0.1803921568627451,77.5,-12.75,-2.375,0,3,0,0,-59.25,-4.0,-19.5,0.0355555555556,-0.025555555555599997,0.004444444444439999,-0.4,0.24,-0.34,521.6600000858307,4.630000114440918
139,1517156910.66,88.0,0.11372549019607843,0.20784313725490197,74.625,-12.5625,-2.1875,1,3,0,0,-45.1875,19.25,-12.5625,-0.0388888888889,0.04,-0.004444444444439999,-0.68,-0.8,-0.83,526.3300001621246,4.670000076293945
140,1517156915.32,83.0,0.32941176470588235,0.17647058823529413,73.9375,-13.25,-4.0625,2,3,0,0,-49.75,19.0,-15.6875,0.0166666666667,-0.0277777777778,-0.0011111111111099998,-0.09,-0.15,0.58,530.9900000095367,4.659999847412109
141,1517156919.97,82.0,0.6274509803921569,0.24313725490196078,74.0625,-13.1875,-3.375,2,3,0,0,-46.5,21.5625,-15.5625,-0.0311111111111,0.0155555555556,0.032222222222199996,0.68,0.17,0.16,535.6400001049042,4.650000095367432
142,1517156924.65,86.0,0.6196078431372549,0.2235294117647059,68.5,-12.9375,-1.4375,2,3,0,0,-41.0625,23.0,-15.375,0.022222222222199998,-0.036666666666699994,0.004444444444439999,-0.06,-0.17,0.35,540.3200001716614,4.680000066757202
143,1517156929.28,86.0,0.8196078431372549,0.3411764705882353,67.3125,-13.0625,0.25,2,3,0,0,-84.1875,-21.6875,8.0,0.026666666666700003,-0.0611111111111,0.0022222222222199996,0.7,-0.22,0.46,544.9500000476837,4.629999876022339
144,1517156933.94,92.0,0.7843137254901961,0.3215686274509804,67.3125,-12.875,-0.4375,0,3,0,0,-95.375,1.1875,-39.0625,0.06,-0.0511111111111,-0.024444444444400002,-1.19,0.27,-1.21,549.6100001335144,4.6600000858306885
145,1517156938.59,98.0,0.6078431372549019,0.2235294117647059,71.125,-11.9375,-1.75,0,3,0,0,-47.6875,-27.5,-24.6875,-0.008888888888889999,0.036666666666699994,-0.0022222222222199996,-0.62,-0.68,0.25,554.2599999904633,4.6499998569488525
146,1517156943.25,105.0,0.8352941176470589,0.2549019607843137,70.4375,-15.4375,-2.8125,0,3,0,0,-61.5625,4.1875,-20.6875,0.0377777777778,-0.025555555555599997,0.0344444444444,1.14,-0.2,-1.55,558.920000076294,4.6600000858306885
147,1517156947.91,105.0,0.10980392156862745,0.15294117647058825,63.6875,-14.4375,-0.9375,0,3,0,0,-60.5625,3.75,-20.375,0.0622222222222,-0.036666666666699994,0.0277777777778,0.28,0.56,-1.71,563.5800001621246,4.6600000858306885
148,1517156952.54,95.0,0.28627450980392155,0.26666666666666666,62.375,-14.5,-1.625,0,3,0,0,-58.875,4.875,-20.0,0.013333333333299998,0.04,0.0333333333333,0.61,-1.1,3.11,568.210000038147,4.629999876022339
149,1517156957.2,94.0,0.8313725490196079,0.18823529411764706,61.25,-15.3125,-0.4375,0,3,0,0,-47.0625,6.1875,-13.875,-0.0311111111111,0.013333333333299998,-0.01,1.03,0.35,0.26,572.8700001239777,4.6600000858306885
150,1517156961.87,88.0,0.6549019607843137,0.21176470588235294,61.1875,-14.8125,-1.5,0,3,0,0,-47.875,7.375,-17.875,-0.0288888888889,-0.0588888888889,-0.01,-0.55,0.01,0.2,577.539999961853,4.669999837875366
151,1517156966.55,85.0,0.6862745098039216,0.23529411764705882,62.5,-12.125,-1.125,0,3,0,0,-31.0625,-3.6875,-23.1875,-0.0033333333333300003,0.026666666666700003,-0.0477777777778,-1.13,-0.05,0.39,582.2200000286102,4.680000066757202
152,1517156971.21,85.0,0.7725490196078432,0.32941176470588235,72.5,-15.125,-1.4375,1,3,0,0,-45.1875,8.0,-12.75,0.03,-0.0011111111111099998,-0.0511111111111,-1.43,0.45,-0.32,586.8800001144409,4.6600000858306885
153,1517156975.88,91.0,0.6039215686274509,0.3137254901960784,84.625,-17.0625,-0.1875,0,3,0,0,-19.6875,-19.0,-27.5625,-0.0011111111111099998,0.013333333333299998,-0.0144444444444,0.71,-0.07,0.97,591.5500001907349,4.670000076293945
154,1517156980.51,95.0,0.11372549019607843,0.24705882352941178,89.8125,-18.3125,-1.5,0,3,0,0,-38.0625,-10.5,-1.375,0.0955555555556,0.173333333333,0.023333333333299996,-1.88,1.25,-1.61,596.1800000667572,4.629999876022339
155,1517156985.17,96.0,0.18823529411764706,0.24705882352941178,90.25,-18.8125,-2.8125,0,3,0,0,-47.5,-0.25,-4.0,-0.0344444444444,0.0211111111111,-0.005555555555560001,1.08,0.2,0.14,600.8400001525879,4.6600000858306885
156,1517156989.85,96.0,0.11372549019607843,0.14901960784313725,90.0625,-19.0625,-3.4375,0,3,0,0,-72.0,-10.5,-16.5625,-0.0377777777778,0.044444444444399996,-0.0144444444444,-0.51,0.11,1.69,605.5199999809265,4.679999828338623
157,1517156994.52,94.0,0.8588235294117647,0.32941176470588235,90.125,-19.3125,-3.5625,0,3,0,0,-51.875,-36.5625,-48.1875,-0.0933333333333,0.0677777777778,-0.02,-0.69,-0.57,0.92,610.1900000572205,4.670000076293945
158,1517156999.17,101.0,0.6274509803921569,0.20784313725490197,90.75,-18.125,-3.0625,0,3,0,0,-73.0,-25.1875,-21.75,-0.013333333333299998,-0.0166666666667,-0.008888888888889999,-0.66,-0.27,0.27,614.8400001525879,4.650000095367432
159,1517157003.83,105.0,0.17647058823529413,0.17254901960784313,90.6875,-17.875,-2.4375,0,3,0,0,-70.25,-24.25,-21.5,-0.0333333333333,0.00666666666667,-0.011111111111099999,0.0,-0.34,0.58,619.5,4.659999847412109
160,1517157008.5,100.0,0.1843137254901961,0.21176470588235294,90.5625,-18.3125,-1.875,0,3,0,0,-72.0625,-24.5625,-19.6875,-0.0144444444444,0.0377777777778,-0.0033333333333300003,0.1,0.83,-0.15,624.170000076294,4.670000076293945
161,1517157013.16,95.0,0.6470588235294118,0.25882352941176473,91.0,-18.375,-1.3125,0,3,0,0,-68.25,-25.6875,-30.6875,0.05666666666669999,-0.0355555555556,0.0022222222222199996,0.71,0.14,0.53,628.8300001621246,4.6600000858306885
162,1517157017.76,97.0,0.8784313725490196,0.3215686274509804,91.0625,-18.0,-1.4375,0,3,0,0,-70.5,-25.0,-22.0625,-0.04,0.008888888888889999,-0.004444444444439999,0.28,-0.6,0.37,633.4300000667572,4.599999904632568
163,1517157022.44,103.0,0.6627450980392157,0.25098039215686274,91.0625,-17.375,-1.5,0,3,0,0,-71.0625,-23.6875,-23.5,0.06666666666669999,-0.0422222222222,0.0177777777778,-0.03,0.14,-0.12,638.1100001335144,4.680000066757202
164,1517157027.08,103.0,0.8235294117647058,0.23921568627450981,91.1875,-16.75,-1.875,0,3,0,0,-69.1875,-23.875,-23.0,-0.0144444444444,-0.0488888888889,0.004444444444439999,3.16,-0.79,0.89,642.75,4.639999866485596
165,1517157031.71,103.0,0.5568627450980392,0.24705882352941178,92.25,-17.0625,-2.75,0,3,0,0,-71.0,-27.25,-23.1875,-0.0333333333333,-0.00666666666667,-0.0011111111111099998,0.38,0.19,0.25,647.3800001144409,4.630000114440918
166,1517157036.37,106.0,0.788235294117647,0.28627450980392155,92.5,-15.6875,-2.4375,0,3,0,0,-72.25,-25.375,-18.6875,0.008888888888889999,0.022222222222199998,0.0033333333333300003,-0.14,-0.64,-1.14,652.039999961853,4.659999847412109
167,1517157041.0,111.0,0.796078431372549,0.1568627450980392,93.0,-16.5,-2.5,0,3,0,0,-70.0625,-23.25,-26.375,-0.024444444444400002,-0.044444444444399996,0.0033333333333300003,-0.24,-0.19,0.0,656.670000076294,4.630000114440918
168,1517157045.71,105.0,0.3333333333333333,0.25098039215686274,93.3125,-16.3125,-3.125,0,3,0,0,-72.1875,-22.1875,-15.0,-0.0955555555556,0.044444444444399996,-0.013333333333299998,2.85,-1.5,-0.24,661.3800001144409,4.710000038146973
169,1517157050.35,104.0,0.7098039215686275,0.23921568627450981,94.1875,-16.3125,-3.125,0,3,0,0,-74.1875,-11.25,-10.5625,-0.026666666666700003,-0.05,-0.013333333333299998,0.78,-0.29,-0.13,666.0199999809265,4.639999866485596
170,1517157055.01,103.0,0.8431372549019608,0.27450980392156865,94.5,-16.25,-3.25,3,3,0,0,-71.25,-4.0,-16.5,0.0333333333333,-0.004444444444439999,0.011111111111099999,-0.11,-0.3,-0.24,670.6800000667572,4.6600000858306885
171,1517157059.67,103.0,0.6901960784313725,0.21176470588235294,94.375,-16.75,-3.5,3,3,0,0,-71.0,-10.6875,-15.0,-0.00777777777778,0.00666666666667,0.0022222222222199996,0.04,-0.01,0.25,675.3400001525879,4.6600000858306885
172,1517157064.3,102.0,0.10980392156862745,0.27450980392156865,94.5625,-16.25,-3.6875,3,3,0,0,-71.25,-7.875,-15.375,-0.026666666666700003,-0.0144444444444,0.0,0.41,-0.35,-0.25,679.9700000286102,4.629999876022339
173,1517157068.96,101.0,0.47058823529411764,0.21568627450980393,94.6875,-16.125,-3.4375,3,3,0,0,-73.5,-8.6875,-16.0,0.0311111111111,0.0155555555556,-0.005555555555560001,0.02,-0.04,-0.45,684.6300001144409,4.6600000858306885
174,1517157073.62,100.0,0.8235294117647058,0.44313725490196076,94.9375,-16.0625,-3.1875,3,3,0,0,-70.1875,-8.5,-23.0625,-0.012222222222200001,0.00666666666667,-0.0011111111111099998,-0.17,-1.28,0.02,689.289999961853,4.659999847412109
175,1517157078.25,108.0,0.8392156862745098,0.36470588235294116,94.9375,-15.4375,-1.8125,3,3,0,0,-70.75,-8.75,-17.375,0.0211111111111,0.0388888888889,0.0,-0.58,-0.03,0.9,693.920000076294,4.630000114440918
176,1517157082.89,113.0,0.6745098039215687,0.2235294117647059,95.5,-15.5625,-1.875,3,3,0,0,-78.5625,-6.5,-24.875,0.0011111111111099998,-0.05666666666669999,-0.0144444444444,0.34,-0.42,-1.08,698.5600001811981,4.640000104904175
177,1517157087.56,114.0,0.7803921568627451,0.33725490196078434,96.625,-14.9375,-2.0,3,3,0,0,-71.1875,-8.1875,-20.5,-0.0955555555556,-0.0022222222222199996,-0.00777777777778,-0.04,-1.14,0.16,703.2300000190735,4.669999837875366
178,1517157092.24,118.0,0.8,0.34509803921568627,96.0,-13.3125,-1.6875,3,3,0,0,-72.1875,-9.75,-22.875,-0.022222222222199998,-0.05333333333330001,0.0033333333333300003,0.85,-0.34,-0.27,707.9100000858307,4.680000066757202
179,1517157096.89,119.0,0.11372549019607843,0.2784313725490196,95.6875,-13.3125,-1.9375,3,3,0,0,-71.1875,-9.0625,-21.5,-0.0011111111111099998,0.07111111111110001,0.0033333333333300003,-1.6,0.08,0.19,712.5600001811981,4.650000095367432
180,1517157101.53,116.0,0.9294117647058824,0.5019607843137255,95.8125,-13.3125,-2.3125,3,3,0,0,-70.25,-9.1875,-22.375,-0.02,0.0422222222222,0.01,-0.9,-0.9,0.03,717.2000000476837,4.639999866485596
181,1517157106.21,124.0,0.8980392156862745,0.3607843137254902,94.625,-14.625,-1.0625,3,3,0,0,-68.375,-7.75,-23.5,0.023333333333299996,0.04,0.00666666666667,-1.01,0.71,-0.29,721.8800001144409,4.680000066757202
182,1517157110.86,124.0,0.24705882352941178,0.2235294117647059,96.3125,-15.375,-2.1875,3,3,0,0,-68.75,-5.0625,-17.5625,0.103333333333,0.06,0.07333333333330001,-0.2,4.38,3.5,726.5299999713898,4.6499998569488525
183,1517157115.5,119.0,0.7411764705882353,0.2549019607843137,97.875,-15.125,-3.4375,3,3,0,0,-59.875,-10.75,-6.0,0.0755555555556,0.024444444444400002,0.0166666666667,-2.19,0.18,1.68,731.170000076294,4.640000104904175
184,1517157120.14,122.0,0.8196078431372549,0.34901960784313724,98.25,-13.0,-4.25,3,3,0,0,-67.0625,-5.375,2.0,0.04,-0.0277777777778,0.00666666666667,-0.51,-0.55,0.47,735.8100001811981,4.640000104904175
185,1517157124.81,126.0,0.10588235294117647,0.3803921568627451,96.75,-12.6875,-4.9375,3,3,0,0,-71.25,-7.1875,-25.0625,0.0022222222222199996,-0.0011111111111099998,-0.0188888888889,-0.76,-0.78,-0.29,740.4800000190735,4.669999837875366
186,1517157129.45,129.0,0.5333333333333333,0.25098039215686274,99.9375,-12.8125,-5.3125,3,3,0,0,-69.0625,-10.25,-10.375,0.0522222222222,-0.01,0.013333333333299998,-0.8,0.23,-0.18,745.1200001239777,4.640000104904175
187,1517157134.11,127.0,0.24705882352941178,0.23921568627450981,100.4375,-12.5,-4.25,3,3,0,0,-69.375,-11.5,-11.0,0.04,0.00777777777778,-0.005555555555560001,0.1,0.35,0.54,749.7799999713898,4.659999847412109
188,1517157138.79,117.0,0.10980392156862745,0.25098039215686274,101.75,-12.8125,-4.25,3,3,0,0,-72.0625,-6.5625,-10.75,-0.0655555555556,-0.0277777777778,-0.013333333333299998,0.6,-0.98,1.34,754.460000038147,4.680000066757202
189,1517157143.45,111.0,0.7294117647058823,0.27058823529411763,100.0,-12.0625,-4.0625,3,3,0,0,-69.25,-18.1875,-20.0,0.04666666666669999,-0.026666666666700003,-0.012222222222200001,-0.12,-0.58,-1.05,759.1200001239777,4.6600000858306885
190,1517157148.1,109.0,0.10980392156862745,0.17647058823529413,101.75,-13.5625,-4.875,2,3,0,0,-91.1875,-9.875,-25.25,0.044444444444399996,0.04,-0.0022222222222199996,0.7,-0.3,0.09,763.7699999809265,4.6499998569488525
191,1517157152.78,101.0,0.11372549019607843,0.16470588235294117,104.0,-13.25,-5.625,2,3,0,0,-70.5625,-26.875,-11.875,0.0,-0.0011111111111099998,-0.0511111111111,-1.11,-0.32,1.73,768.4500000476837,4.680000066757202
192,1517157157.45,93.0,0.6196078431372549,0.2,111.6875,-12.8125,-3.625,0,3,0,0,-12.6875,-55.1875,-34.6875,0.0311111111111,0.0155555555556,-0.111111111111,-1.69,0.11,0.85,773.1200001239777,4.670000076293945
193,1517157162.13,85.0,0.6823529411764706,0.2627450980392157,137.125,-19.6875,-2.4375,0,3,0,0,-21.375,-53.875,-42.875,0.0977777777778,0.005555555555560001,-0.108888888889,-0.55,0.33,-1.01,777.8000001907349,4.680000066757202
194,1517157166.8,85.0,0.8431372549019608,0.4392156862745098,162.375,-22.0,-1.9375,1,3,0,0,-8.5625,-53.875,-18.0,0.0355555555556,0.0188888888889,-0.026666666666700003,-0.21,0.11,0.66,782.4700000286102,4.669999837875366
195,1517157171.46,97.0,0.17254901960784313,0.24705882352941178,175.3125,-20.875,0.25,0,3,0,0,-11.375,-54.5,-41.375,-0.004444444444439999,0.106666666667,-0.004444444444439999,-0.45,0.2,2.09,787.1300001144409,4.6600000858306885
196,1517157176.09,98.0,0.11372549019607843,0.18823529411764706,176.5,-19.3125,-0.875,0,3,0,0,-85.25,-17.375,-32.75,-0.008888888888889999,-0.008888888888889999,-0.0155555555556,0.62,0.24,0.19,791.7599999904633,4.629999876022339
197,1517157180.76,95.0,0.9882352941176471,0.1607843137254902,180.4375,-18.0,-1.0625,0,3,0,0,-76.5625,-10.25,-10.875,-0.022222222222199998,0.022222222222199998,0.023333333333299996,1.6,0.33,0.63,796.4300000667572,4.670000076293945
198,1517157185.41,91.0,0.5647058823529412,0.30980392156862746,178.8125,-17.875,-1.25,0,3,0,0,-78.5625,-22.0,-8.6875,-0.00666666666667,0.004444444444439999,-0.05,-0.14,-0.39,0.68,801.0800001621246,4.650000095367432
199,1517157190.08,93.0,0.8862745098039215,0.47058823529411764,182.75,-18.875,-0.75,0,3,0,0,-74.6875,-21.0,-12.25,0.012222222222200001,-0.0333333333333,-0.0011111111111099998,0.59,-0.26,0.41,805.75,4.669999837875366
200,1517157194.76,105.0,0.9333333333333333,0.7411764705882353,182.8125,-17.875,-0.75,0,3,0,0,-78.0,-22.1875,-22.6875,0.024444444444400002,-0.0344444444444,-0.0022222222222199996,0.0,-0.81,-0.45,810.4300000667572,4.680000066757202
201,1517157199.41,125.0,0.14901960784313725,0.2549019607843137,183.0625,-17.5625,-1.5625,0,3,0,0,-79.0625,-25.25,-4.0625,0.00777777777778,-0.005555555555560001,0.004444444444439999,0.42,0.69,-0.25,815.0800001621246,4.650000095367432
202,1517157204.09,121.0,0.5803921568627451,0.2784313725490196,183.3125,-16.9375,-2.3125,0,3,0,0,-78.875,-25.5625,-5.1875,0.023333333333299996,0.04333333333330001,-0.0022222222222199996,-0.08,0.51,-0.21,819.7599999904633,4.679999828338623
203,1517157208.75,120.0,0.3137254901960784,0.1803921568627451,183.6875,-16.6875,-2.125,0,3,0,0,-74.5,-25.5,-5.5625,-0.0188888888889,-0.0211111111111,-0.0177777777778,0.28,-0.21,0.53,824.420000076294,4.6600000858306885
204,1517157213.42,116.0,0.6549019607843137,0.4117647058823529,184.0625,-16.375,-2.75,0,3,0,0,-77.6875,-24.1875,-4.6875,0.00666666666667,0.0144444444444,0.0022222222222199996,0.11,-0.27,0.18,829.0900001525879,4.670000076293945
205,1517157218.08,119.0,0.8509803921568627,0.17647058823529413,184.5,-16.5625,-2.1875,0,3,0,0,-72.875,-25.1875,-6.25,0.011111111111099999,0.0455555555556,0.00777777777778,-0.05,0.13,-0.55,833.75,4.659999847412109
206,1517157222.72,120.0,0.5607843137254902,0.26666666666666666,185.0625,-16.375,-3.3125,0,3,0,0,-75.1875,-26.6875,-5.875,0.044444444444399996,0.044444444444399996,0.013333333333299998,-0.82,0.68,0.26,838.3900001049042,4.640000104904175
207,1517157227.39,119.0,0.403921568627451,0.3607843137254902,185.8125,-16.0,-3.625,0,3,0,0,-72.5625,-23.5625,-3.25,0.0011111111111099998,0.0311111111111,-0.022222222222199998,-0.26,-0.8,0.75,843.0600001811981,4.670000076293945
208,1517157232.03,123.0,0.9647058823529412,0.5254901960784314,188.6875,-15.375,-2.5625,0,3,0,0,-74.1875,-23.5625,-5.75,-0.00666666666667,0.0544444444444,-0.0033333333333300003,0.06,-1.25,0.28,847.7000000476837,4.639999866485596
209,1517157236.68,136.0,0.9411764705882353,0.5372549019607843,187.4375,-13.5625,-2.125,0,3,0,0,-66.1875,-22.5,-15.5625,-0.0155555555556,0.0144444444444,-0.0011111111111099998,-0.28,-0.77,0.59,852.3500001430511,4.650000095367432
210,1517157241.31,144.0,0.20392156862745098,0.25882352941176473,187.0625,-14.375,-2.875,0,3,0,0,-59.6875,-24.5625,-13.875,0.024444444444400002,-0.0166666666667,0.0011111111111099998,0.48,0.74,-0.36,856.9800000190735,4.629999876022339
211,1517157245.96,138.0,0.10196078431372549,0.1607843137254902,187.75,-15.5,-3.6875,0,3,0,0,-63.25,-22.875,-16.1875,-0.0166666666667,0.04333333333330001,-0.004444444444439999,0.09,-0.61,-0.17,861.6300001144409,4.650000095367432
212,1517157250.58,132.0,0.7450980392156863,0.3137254901960784,187.6875,-15.5,-3.625,0,3,0,0,-64.0625,-21.5,-16.375,0.008888888888889999,-0.004444444444439999,0.008888888888889999,0.54,-0.09,-0.64,866.25,4.619999885559082
213,1517157255.25,133.0,0.5333333333333333,0.2823529411764706,185.5,-14.625,-3.4375,0,3,0,0,-62.875,-21.875,-18.0,-0.0033333333333300003,-0.022222222222199998,-0.00777777777778,0.06,0.36,0.44,870.920000076294,4.670000076293945
214,1517157259.92,128.0,0.10980392156862745,0.1607843137254902,186.0,-15.625,-4.375,0,3,0,0,-60.0625,-20.875,-17.5625,0.0011111111111099998,-0.04666666666669999,0.012222222222200001,1.36,0.62,1.19,875.5900001525879,4.670000076293945
215,1517157264.57,111.0,0.10980392156862745,0.27450980392156865,185.8125,-15.6875,-4.5625,0,3,0,0,-61.25,-20.5,-21.0625,0.004444444444439999,0.026666666666700003,0.004444444444439999,-0.16,-0.43,-0.66,880.2400000095367,4.6499998569488525
216,1517157269.24,112.0,0.1843137254901961,0.17254901960784313,185.875,-15.6875,-4.25,0,3,0,0,-61.0625,-23.0625,-16.5625,0.025555555555599997,0.0,0.005555555555560001,0.14,0.42,1.25,884.9100000858307,4.670000076293945
217,1517157273.88,107.0,0.5098039215686274,0.3137254901960784,185.5,-15.3125,-4.5625,0,3,0,0,-62.75,-25.0,-20.375,0.0155555555556,0.0577777777778,0.004444444444439999,-1.51,-0.34,0.46,889.5500001907349,4.640000104904175
218,1517157278.56,110.0,0.8666666666666667,0.23921568627450981,185.8125,-15.375,-4.625,0,3,0,0,-61.5625,-24.25,-19.5,-0.0211111111111,-0.00777777777778,-0.004444444444439999,0.41,-0.34,0.58,894.2300000190735,4.679999828338623
219,1517157283.22,111.0,0.6862745098039216,0.4117647058823529,185.375,-14.625,-4.5,0,3,0,0,-62.5625,-20.375,-17.25,-0.0355555555556,-0.0422222222222,-0.008888888888889999,-0.85,-0.6,-0.08,898.8900001049042,4.6600000858306885
220,1517157287.87,114.0,0.13333333333333333,0.3254901960784314,185.9375,-14.6875,-4.25,0,3,0,0,-60.0625,-21.875,-18.0625,-0.02,-0.0355555555556,0.004444444444439999,1.06,-0.21,1.15,903.539999961853,4.6499998569488525
221,1517157292.52,114.0,0.4745098039215686,0.2,185.6875,-14.625,-4.4375,0,3,0,0,-62.375,-21.875,-18.75,-0.0155555555556,0.0011111111111099998,-0.0022222222222199996,0.22,-0.63,-0.23,908.1900000572205,4.650000095367432
222,1517157297.16,113.0,0.49019607843137253,0.35294117647058826,185.5,-14.3125,-4.8125,0,3,0,0,-66.375,-21.0,-15.375,-0.0522222222222,-0.005555555555560001,-0.013333333333299998,-0.26,0.56,0.0,912.8300001621246,4.640000104904175
223,1517157301.81,116.0,0.5137254901960784,0.17254901960784313,185.3125,-14.375,-4.875,0,3,0,0,-65.6875,-20.375,-15.25,-0.012222222222200001,-0.0155555555556,0.004444444444439999,0.08,0.22,0.29,917.4800000190735,4.6499998569488525
224,1517157306.47,113.0,0.807843137254902,0.21568627450980393,185.375,-14.375,-5.625,0,3,0,0,-68.1875,-19.6875,-15.25,-0.023333333333299996,-0.0333333333333,-0.0033333333333300003,0.02,-0.26,-0.53,922.1400001049042,4.6600000858306885
225,1517157311.15,110.0,0.13725490196078433,0.1843137254901961,185.625,-13.9375,-5.8125,0,3,0,0,-65.5625,-20.5625,-17.0,-0.01,0.00777777777778,-0.0033333333333300003,0.53,-0.26,0.22,926.8200001716614,4.680000066757202
226,1517157315.8,106.0,0.10588235294117647,0.20784313725490197,185.8125,-14.5625,-5.9375,0,3,0,0,-66.5,-20.25,-16.6875,-0.0155555555556,0.012222222222200001,-0.012222222222200001,-0.91,0.19,0.07,931.4700000286102,4.6499998569488525
227,1517157320.48,102.0,0.10980392156862745,0.2196078431372549,186.8125,-14.125,-6.625,0,3,0,0,-62.875,-21.1875,-15.5625,-0.00777777777778,0.013333333333299998,-0.00777777777778,0.62,0.24,0.09,936.1500000953674,4.680000066757202
228,1517157325.13,98.0,0.5176470588235295,0.23137254901960785,187.25,-14.4375,-6.75,0,3,0,0,-64.25,-22.0625,-18.1875,0.036666666666699994,0.00666666666667,-0.005555555555560001,-0.17,-0.34,0.9,940.8000001907349,4.650000095367432
229,1517157329.77,99.0,0.10980392156862745,0.15294117647058825,188.375,-14.4375,-6.4375,0,3,0,0,-64.25,-21.5625,-16.5,0.00777777777778,0.023333333333299996,0.0022222222222199996,-0.3,0.16,-0.47,945.4400000572205,4.639999866485596
230,1517157334.45,93.0,0.9490196078431372,0.6313725490196078,189.125,-15.0625,-6.75,0,3,0,0,-59.25,-20.375,-21.375,0.026666666666700003,0.022222222222199998,-0.004444444444439999,-0.93,-1.34,-0.44,950.1200001239777,4.680000066757202
231,1517157339.11,114.0,0.9647058823529412,0.6431372549019608,189.625,-14.0,-3.125,0,3,0,0,-52.875,-19.1875,-16.1875,0.0177777777778,0.0511111111111,-0.008888888888889999,-1.18,-0.18,-0.12,954.7799999713898,4.659999847412109
232,1517157343.78,132.0,0.1607843137254902,0.17254901960784313,191.125,-12.625,-2.3125,0,3,0,0,-53.875,-15.75,-9.25,0.004444444444439999,0.005555555555560001,0.0166666666667,1.43,0.28,-0.67,959.4500000476837,4.670000076293945
233,1517157348.44,124.0,0.8274509803921568,0.16862745098039217,188.9375,-12.25,-3.0625,0,3,0,0,-50.75,-23.5625,-19.0625,-0.0033333333333300003,0.013333333333299998,-0.004444444444439999,0.18,0.42,-0.01,964.1100001335144,4.6600000858306885
234,1517157353.07,119.0,0.10980392156862745,0.15294117647058825,189.75,-14.5,-4.3125,0,3,0,0,-51.375,-18.0625,-18.25,0.0555555555556,-0.036666666666699994,0.0277777777778,1.02,0.91,1.07,968.7400000095367,4.629999876022339
235,1517157357.74,97.0,0.11372549019607843,0.16862745098039217,189.75,-14.1875,-4.375,0,3,0,0,-61.875,-21.0625,-13.0625,-0.0288888888889,0.0355555555556,-0.011111111111099999,0.01,-0.54,-0.71,973.4100000858307,4.670000076293945
236,1517157362.38,89.0,0.2823529411764706,0.17647058823529413,189.625,-14.5625,-4.75,0,3,0,0,-65.375,-17.5,-15.375,0.0155555555556,-0.0177777777778,0.026666666666700003,-0.75,-0.18,-0.13,978.0500001907349,4.640000104904175
237,1517157367.05,86.0,0.11372549019607843,0.18823529411764706,189.0625,-14.4375,-5.1875,0,3,0,0,-61.25,-19.875,-14.0625,-0.022222222222199998,0.013333333333299998,0.0511111111111,0.96,-0.12,0.42,982.7200000286102,4.669999837875366
238,1517157371.7,83.0,0.12156862745098039,0.17254901960784313,178.25,-13.375,-5.3125,0,3,0,0,-36.75,-11.0625,-3.5,0.106666666667,0.191111111111,0.03,0.45,-0.18,2.01,987.3700001239777,4.650000095367432
239,1517157376.32,82.0,0.8117647058823529,0.15294117647058825,162.625,-13.25,-5.0625,0,3,0,0,-52.0,-11.75,-7.5625,-0.0544444444444,-0.0011111111111099998,0.0655555555556,1.05,-0.78,0.03,991.9900000095367,4.619999885559082
240,1517157380.97,86.0,0.43529411764705883,0.14901960784313725,147.0,-11.9375,-3.75,0,3,0,0,-23.6875,-5.0625,-21.0625,0.005555555555560001,0.05,0.0555555555556,-1.59,0.85,-0.05,996.6400001049042,4.650000095367432
241,1517157385.61,83.0,0.12156862745098039,0.24705882352941178,131.9375,-11.5,-3.25,0,3,0,0,-30.0625,8.875,-23.6875,-0.0211111111111,0.05,0.05333333333330001,-2.09,0.47,-2.78,1001.2799999713898,4.639999866485596
242,1517157390.26,81.0,0.11372549019607843,0.17647058823529413,117.625,-11.25,-2.4375,0,3,0,0,-48.0625,5.6875,-14.1875,-0.0144444444444,0.0388888888889,0.036666666666699994,-0.64,-0.5,0.02,1005.9300000667572,4.650000095367432
243,1517157394.92,79.0,0.4,0.2549019607843137,108.3125,-9.75,-1.8125,0,3,0,0,-44.0625,6.5625,-13.25,0.025555555555599997,0.05,-0.008888888888889999,-1.44,0.08,-0.79,1010.5900001525879,4.6600000858306885
244,1517157399.53,81.0,0.13333333333333333,0.18823529411764706,106.9375,-10.5625,-2.3125,0,3,0,0,15.25,-23.875,-50.5625,-0.0144444444444,-0.025555555555599997,-0.0144444444444,0.72,-0.58,-0.31,1015.2000000476837,4.609999895095825
245,1517157404.17,79.0,0.8,0.30980392156862746,107.625,-12.8125,-3.4375,0,3,0,0,-92.375,47.375,23.0625,-0.0155555555556,-0.02,0.0033333333333300003,-0.05,-0.72,0.44,1019.8400001525879,4.640000104904175
246,1517157408.83,85.0,0.17647058823529413,0.14901960784313725,107.0625,-14.0625,-2.25,0,3,0,0,-47.1875,1.875,-36.5,-0.0522222222222,-0.00777777777778,-0.013333333333299998,0.55,0.31,0.25,1024.5,4.659999847412109
247,1517157413.49,83.0,0.12156862745098039,0.26666666666666666,104.8125,-11.875,-3.9375,0,3,0,0,-43.0,2.375,-36.5,0.032222222222199996,0.012222222222200001,0.0344444444444,-0.32,0.43,-0.3,1029.1600000858307,4.6600000858306885
248,1517157418.13,84.0,0.6313725490196078,0.23137254901960785,96.1875,-10.6875,-4.75,3,3,0,0,-66.5,-3.0,-19.0625,-0.0955555555556,0.011111111111099999,0.0011111111111099998,1.72,-0.63,-2.13,1033.8000001907349,4.640000104904175
249,1517157422.76,89.0,0.8196078431372549,0.2784313725490196,90.6875,-10.1875,-1.75,3,3,0,0,-62.25,-1.6875,-16.875,-0.008888888888889999,0.023333333333299996,-0.0033333333333300003,-0.69,-0.08,-0.16,1038.4300000667572,4.629999876022339
250,1517157427.43,93.0,0.6392156862745098,0.2196078431372549,90.6875,-12.1875,-1.6875,3,3,0,0,-66.0,-3.0625,-16.875,-0.01,0.041111111111099996,-0.005555555555560001,-0.9,0.87,-0.61,1043.1000001430511,4.670000076293945
251,1517157432.1,93.0,0.6666666666666666,0.2980392156862745,90.8125,-12.6875,-3.125,3,3,0,0,-69.875,-1.875,-27.0625,-0.0022222222222199996,-0.0355555555556,-0.0144444444444,-0.03,-0.07,0.71,1047.7699999809265,4.669999837875366
252,1517157436.75,96.0,0.5686274509803921,0.21568627450980393,92.1875,-13.6875,-2.5,3,3,0,0,-65.75,-2.875,-19.5625,0.012222222222200001,0.0022222222222199996,-0.005555555555560001,-0.29,0.44,-0.58,1052.420000076294,4.650000095367432
253,1517157441.38,96.0,0.796078431372549,0.27058823529411763,93.4375,-14.3125,-3.5625,3,3,0,0,-64.5625,-3.375,-17.6875,0.00777777777778,-0.008888888888889999,-0.008888888888889999,-0.42,0.41,-0.99,1057.0500001907349,4.630000114440918
254,1517157446.02,97.0,0.10980392156862745,0.17647058823529413,94.8125,-14.0625,-4.0625,3,3,0,0,-65.75,-3.5625,-18.375,-0.044444444444399996,0.004444444444439999,-0.0022222222222199996,0.01,-0.65,0.92,1061.6900000572205,4.639999866485596
255,1517157450.67,93.0,0.7803921568627451,0.24313725490196078,94.4375,-14.0,-4.5625,3,3,0,0,-62.6875,-3.5,-20.1875,-0.0211111111111,-0.012222222222200001,-0.00666666666667,-0.24,-0.45,0.74,1066.340000152588,4.650000095367432
256,1517157455.31,97.0,0.596078431372549,0.2,94.625,-13.875,-3.625,3,3,0,0,-65.6875,-3.875,-19.0,0.0166666666667,0.032222222222199996,0.01,0.45,0.0,0.45,1070.9800000190735,4.639999866485596
257,1517157459.99,94.0,0.6588235294117647,0.23921568627450981,94.75,-13.75,-4.3125,3,3,0,0,-64.0625,-4.0,-19.75,0.0377777777778,-0.03,0.005555555555560001,0.22,0.19,1.08,1075.6600000858307,4.680000066757202
258,1517157464.64,96.0,0.34901960784313724,0.2784313725490196,95.3125,-13.75,-3.875,3,3,0,0,-63.25,-3.875,-19.5,-0.0022222222222199996,-0.0177777777778,-0.008888888888889999,-0.06,-1.12,0.03,1080.3100001811981,4.650000095367432
259,1517157469.31,100.0,0.17647058823529413,0.18823529411764706,95.3125,-15.0,-3.25,3,3,0,0,-60.875,-5.1875,-19.5,0.025555555555599997,-0.0144444444444,-0.004444444444439999,-0.7,-0.25,0.09,1084.9800000190735,4.669999837875366
260,1517157473.96,99.0,0.8274509803921568,0.16470588235294117,95.9375,-15.5625,-3.8125,3,3,0,0,-61.5625,-5.25,-19.5,-0.032222222222199996,-0.0022222222222199996,0.022222222222199998,0.35,0.16,-0.46,1089.630000114441,4.650000095367432
261,1517157478.63,96.0,0.9098039215686274,0.5215686274509804,95.9375,-12.75,-4.0,3,3,0,0,-66.0,-4.875,-17.1875,0.041111111111099996,-0.00777777777778,0.0022222222222199996,-0.3,-0.76,-0.49,1094.3000001907349,4.670000076293945
262,1517157483.28,110.0,0.9215686274509803,0.16470588235294117,95.1875,-13.25,-2.5,3,3,0,0,-68.0625,-4.5625,-19.0625,-0.008888888888889999,-0.00666666666667,0.0,0.18,0.09,-0.46,1098.9500000476837,4.6499998569488525
263,1517157487.95,108.0,0.12941176470588237,0.17647058823529413,95.25,-14.0,-4.8125,3,3,0,0,-67.75,-4.375,-17.25,0.012222222222200001,-0.0155555555556,0.023333333333299996,0.94,-0.17,2.13,1103.6200001239777,4.670000076293945
264,1517157492.58,101.0,0.1450980392156863,0.2549019607843137,91.5,-13.25,-5.1875,3,3,0,0,-65.0625,-2.5625,-17.25,0.0033333333333300003,-0.025555555555599997,0.0033333333333300003,0.61,-0.58,0.4,1108.25,4.629999876022339
265,1517157497.24,101.0,0.10980392156862745,0.20392156862745098,91.3125,-13.3125,-4.3125,3,3,0,0,-64.5625,-2.6875,-19.6875,0.0033333333333300003,-0.00777777777778,0.00777777777778,-0.16,0.49,-0.03,1112.9100000858307,4.6600000858306885
266,1517157501.89,95.0,0.11372549019607843,0.14901960784313725,89.5625,-12.5625,-5.0,3,3,0,0,-65.0,-2.5,-17.6875,0.0144444444444,-0.0188888888889,0.008888888888889999,0.44,0.23,0.3,1117.5600001811981,4.650000095367432
267,1517157506.54,80.0,0.2,0.27058823529411763,88.1875,-12.0625,-6.25,3,3,0,0,-63.6875,-1.5625,-18.6875,-0.0022222222222199996,-0.0033333333333300003,0.0188888888889,-0.63,-0.32,-0.18,1122.210000038147,4.6499998569488525
268,1517157511.19,83.0,0.8196078431372549,0.35294117647058826,85.5625,-11.625,-3.0625,3,3,0,0,-61.5,-1.5,-18.6875,0.0211111111111,-0.023333333333299996,-0.005555555555560001,0.3,-0.59,0.22,1126.8600001335144,4.650000095367432
269,1517157515.81,93.0,0.8352941176470589,0.34509803921568627,85.9375,-13.5,-2.4375,2,3,0,0,-63.0625,-0.5625,-17.75,-0.026666666666700003,-0.0166666666667,-0.0144444444444,0.14,-0.1,-0.66,1131.4800000190735,4.619999885559082
270,1517157520.46,101.0,0.8509803921568627,0.4,86.6875,-13.5625,-2.5,2,3,0,0,-61.1875,-0.0625,-18.75,-0.0177777777778,0.008888888888889999,-0.0033333333333300003,0.19,-0.38,-0.49,1136.130000114441,4.650000095367432
271,1517157525.09,109.0,0.8313725490196079,0.3568627450980392,86.5,-14.0625,-2.8125,2,3,0,0,-62.1875,-1.5625,-18.6875,0.0188888888889,0.0155555555556,0.0,-0.46,-0.03,-0.34,1140.7599999904633,4.629999876022339
272,1517157529.79,115.0,0.5803921568627451,0.24313725490196078,86.6875,-13.8125,-3.25,2,3,0,0,-61.0625,0.1875,-17.0625,-0.0522222222222,0.0166666666667,-0.008888888888889999,0.29,0.01,-0.03,1145.460000038147,4.700000047683716
273,1517157534.47,115.0,0.5294117647058824,0.23137254901960785,86.6875,-14.125,-3.6875,2,3,0,0,-62.0625,-1.5625,-17.875,-0.0677777777778,0.0355555555556,-0.011111111111099999,1.04,-1.1,-0.84,1150.1400001049042,4.680000066757202
274,1517157539.13,116.0,0.6509803921568628,0.24313725490196078,87.0625,-14.0625,-4.125,2,3,0,0,-68.25,-4.0,-17.1875,-0.03,0.0011111111111099998,-0.012222222222200001,-0.12,0.03,1.16,1154.8000001907349,4.6600000858306885
275,1517157543.79,115.0,0.6313725490196078,0.24313725490196078,88.3125,-14.1875,-4.5,2,3,0,0,-77.75,0.1875,-27.5625,0.0377777777778,-0.041111111111099996,0.011111111111099999,1.56,-0.5,-0.48,1159.460000038147,4.659999847412109
276,1517157548.41,114.0,0.5215686274509804,0.27450980392156865,89.0,-14.75,-4.5,3,3,0,0,-66.1875,-4.0625,-18.75,-0.025555555555599997,0.012222222222200001,-0.008888888888889999,0.71,-0.58,0.18,1164.0800001621246,4.620000123977661
277,1517157553.05,115.0,0.807843137254902,0.2823529411764706,90.3125,-14.9375,-4.875,3,3,0,0,-61.875,-4.5,-17.5,0.008888888888889999,-0.008888888888889999,-0.01,-0.3,0.0,0.69,1168.7200000286102,4.639999866485596
278,1517157557.71,117.0,0.5843137254901961,0.2901960784313726,91.875,-15.0625,-5.3125,3,3,0,0,-65.0,-5.875,-19.6875,0.0011111111111099998,-0.0155555555556,-0.0022222222222199996,0.39,-0.89,2.26,1173.380000114441,4.6600000858306885
279,1517157562.38,117.0,0.6078431372549019,0.23137254901960785,92.6875,-15.5,-5.8125,3,3,0,0,-63.25,-4.5625,-19.375,0.01,-0.01,-0.004444444444439999,0.98,0.06,0.29,1178.0500001907349,4.670000076293945
280,1517157567.06,114.0,0.34509803921568627,0.17254901960784313,93.8125,-14.9375,-6.1875,3,3,0,0,-62.375,-6.1875,-18.25,0.0033333333333300003,0.00777777777778,-0.02,0.29,-0.7,0.37,1182.7300000190735,4.679999828338623
281,1517157571.73,112.0,0.7607843137254902,0.28627450980392155,94.875,-15.125,-6.375,3,3,0,0,-62.6875,-6.1875,-18.375,-0.0188888888889,-0.008888888888889999,-0.005555555555560001,-0.36,-0.06,0.94,1187.4000000953674,4.670000076293945
282,1517157576.39,114.0,0.7607843137254902,0.27450980392156865,95.5625,-14.8125,-5.625,3,3,0,0,-61.5,-6.5625,-20.5625,-0.022222222222199998,0.00666666666667,-0.0033333333333300003,0.35,-0.44,0.23,1192.0600001811981,4.6600000858306885
283,1517157581.04,115.0,0.788235294117647,0.16862745098039217,95.75,-15.0,-5.4375,3,3,0,0,-62.25,-6.1875,-18.5625,-0.01,0.0288888888889,-0.005555555555560001,-0.78,-0.05,-0.41,1196.710000038147,4.6499998569488525
284,1517157585.68,113.0,0.4823529411764706,0.24313725490196078,96.0,-15.0,-5.75,3,3,0,0,-61.5625,-6.1875,-19.6875,0.0011111111111099998,0.0277777777778,-0.01,-0.43,-0.11,-0.62,1201.3500001430511,4.640000104904175
285,1517157590.32,113.0,0.7254901960784313,0.28627450980392155,96.9375,-15.1875,-5.9375,3,3,0,0,-61.0625,-5.375,-19.375,0.0277777777778,-0.0355555555556,0.01,-0.47,-0.25,0.49,1205.9900000095367,4.639999866485596
286,1517157594.98,112.0,0.40784313725490196,0.25882352941176473,98.0,-14.75,-6.0625,3,3,0,0,-61.375,-6.375,-18.375,-0.0155555555556,0.0355555555556,-0.008888888888889999,-0.18,-0.31,0.28,1210.6500000953674,4.6600000858306885
287,1517157599.61,111.0,0.6196078431372549,0.24705882352941178,98.8125,-15.0625,-6.1875,3,3,0,0,-67.875,-5.875,-18.0625,0.008888888888889999,0.025555555555599997,0.008888888888889999,0.15,-0.39,-0.12,1215.2799999713898,4.629999876022339
288,1517157604.25,113.0,0.47843137254901963,0.22745098039215686,98.875,-14.5,-6.0,3,3,0,0,-68.25,-5.0625,-19.5,0.0477777777778,0.004444444444439999,0.012222222222200001,0.06,-0.43,0.32,1219.920000076294,4.640000104904175
289,1517157608.88,112.0,0.2,0.17647058823529413,99.4375,-14.3125,-5.9375,2,3,0,0,-69.6875,-5.875,-18.75,-0.01,-0.0188888888889,-0.0011111111111099998,0.12,-0.54,-0.84,1224.5500001907349,4.630000114440918
290,1517157613.52,106.0,0.2784313725490196,0.2549019607843137,99.25,-14.1875,-6.375,2,3,0,0,-68.6875,-5.0625,-18.5,-0.03,-0.011111111111099999,0.0011111111111099998,0.27,-0.52,1.8,1229.1900000572205,4.639999866485596
291,1517157618.17,102.0,0.6862745098039216,0.2,99.25,-13.5,-5.8125,2,3,0,0,-67.75,-9.1875,-18.1875,0.005555555555560001,-0.0277777777778,0.013333333333299998,0.77,-0.86,0.32,1233.840000152588,4.650000095367432
292,1517157622.84,102.0,0.8235294117647058,0.3686274509803922,98.875,-13.25,-5.125,2,3,0,0,-65.75,-4.0,-20.0,0.01,-0.005555555555560001,0.012222222222200001,0.15,-0.31,-0.16,1238.5099999904633,4.669999837875366
293,1517157627.49,106.0,0.7803921568627451,0.1803921568627451,97.375,-13.0625,-4.4375,2,3,0,0,-65.75,-4.5625,-19.5,0.036666666666699994,-0.0555555555556,0.0211111111111,0.83,0.07,0.0,1243.1600000858307,4.650000095367432
294,1517157632.16,103.0,0.6431372549019608,0.2,96.375,-13.0625,-4.8125,3,3,0,0,-48.75,-5.1875,-8.375,-0.03,0.012222222222200001,0.011111111111099999,-0.4,-0.05,0.46,1247.8300001621246,4.670000076293945
295,1517157636.82,102.0,0.8352941176470589,0.34509803921568627,95.625,-12.375,-4.0,2,3,0,0,-61.5625,-3.0625,-17.875,-0.008888888888889999,0.0522222222222,-0.0011111111111099998,-0.69,0.03,-0.33,1252.4900000095367,4.659999847412109
296,1517157641.45,106.0,0.7333333333333333,0.2549019607843137,95.875,-12.3125,-3.875,2,3,0,0,-58.1875,-3.375,-17.5625,0.004444444444439999,0.023333333333299996,-0.0011111111111099998,0.13,-0.35,-0.08,1257.1200001239777,4.630000114440918
297,1517157646.09,108.0,0.8352941176470589,0.3607843137254902,96.0,-12.625,-4.125,2,3,0,0,-59.5,-1.875,-17.375,0.041111111111099996,-0.005555555555560001,0.01,0.1,-1.02,0.67,1261.7599999904633,4.639999866485596
298,1517157650.76,112.0,0.7568627450980392,0.21176470588235294,96.3125,-13.3125,-3.9375,2,3,0,0,-59.5,-2.75,-17.75,0.121111111111,0.0355555555556,0.0211111111111,0.64,-0.09,-1.58,1266.4300000667572,4.670000076293945
299,1517157655.42,108.0,0.6431372549019608,0.23529411764705882,96.6875,-13.3125,-4.8125,2,3,0,0,-60.875,-10.0,-18.6875,0.00666666666667,0.00666666666667,0.0022222222222199996,-0.4,-0.29,0.74,1271.090000152588,4.6600000858306885
300,1517157660.04,106.0,0.6039215686274509,0.2823529411764706,96.625,-13.5,-4.8125,2,3,0,0,-66.5,-2.375,-16.875,0.005555555555560001,-0.0344444444444,-0.0033333333333300003,0.95,-0.27,-0.23,1275.710000038147,4.619999885559082
301,1517157664.69,105.0,0.615686274509804,0.17647058823529413,97.0,-13.5625,-4.8125,2,3,0,0,-67.6875,-0.75,-19.6875,0.024444444444400002,-0.0277777777778,-0.005555555555560001,-1.9,0.5,1.99,1280.3600001335144,4.650000095367432
302,1517157669.37,103.0,0.7764705882352941,0.24705882352941178,98.3125,-11.5,-4.4375,2,3,0,0,-67.1875,-2.75,-18.375,0.026666666666700003,-0.0888888888889,0.0166666666667,1.37,-1.22,0.44,1285.039999961853,4.679999828338623
303,1517157674.05,106.0,0.7647058823529411,0.27450980392156865,100.75,-11.6875,-5.0,1,3,0,0,-69.1875,-6.5625,-16.5625,0.024444444444400002,0.0288888888889,0.005555555555560001,0.31,-0.34,0.86,1289.7200000286102,4.680000066757202
304,1517157678.71,107.0,0.5725490196078431,0.3058823529411765,102.6875,-12.875,-5.8125,1,3,0,0,-65.25,-5.375,-20.5625,0.008888888888889999,-0.023333333333299996,-0.0022222222222199996,-0.38,-0.54,-0.23,1294.380000114441,4.6600000858306885
305,1517157683.36,109.0,0.8117647058823529,0.3137254901960784,103.25,-14.75,-6.1875,1,3,0,0,-65.5,-5.6875,-18.25,0.03,-0.0022222222222199996,0.01,0.56,-0.71,0.21,1299.0299999713898,4.6499998569488525
306,1517157688.02,113.0,0.803921568627451,0.26666666666666666,102.8125,-14.4375,-6.1875,1,3,0,0,-64.6875,-4.375,-18.1875,0.0155555555556,0.0277777777778,0.012222222222200001,-0.15,-0.01,0.94,1303.6900000572205,4.6600000858306885
307,1517157692.69,112.0,0.1450980392156863,0.17647058823529413,101.875,-14.375,-5.6875,1,3,0,0,-65.0625,-4.0625,-19.875,-0.026666666666700003,-0.0166666666667,-0.011111111111099999,0.34,-0.56,1.0,1308.3600001335144,4.670000076293945
308,1517157697.32,108.0,0.8941176470588236,0.4470588235294118,101.375,-14.125,-5.75,1,3,0,0,-60.375,1.75,-20.5625,0.0,-0.0422222222222,0.00777777777778,0.52,-1.06,0.23,1312.9900000095367,4.629999876022339
