,date,speed,engine_load,throttle,heading,roll,pitch,sys,gyro,accel,mag,magx,magy,magz,gyrx,gyry,gyrz,linaccx,linaccy,linaxxz,time,time_diff
30,1517152801.53,3.0,0.396078431372549,0.1607843137254902,184.875,-20.4375,13.25,3,0,0,0.0,4.875,-18.5625,-2.0,-0.01,-0.0011111111111099998,0.032222222222199996,0.4,-0.57,0.41,0.0,
31,1517152806.21,2.0,0.41568627450980394,0.16862745098039217,152.8125,-17.3125,11.625,0,0,0,0.0,18.1875,-12.875,-1.375,-0.0777777777778,-0.0177777777778,0.0511111111111,-0.02,-0.35,-0.02,4.680000066757202,4.680000066757202
32,1517152810.86,12.0,0.25098039215686274,0.1607843137254902,108.375,-15.6875,9.5625,0,0,0,0.0,16.875,-13.0625,0.375,-0.00777777777778,0.023333333333299996,-0.0855555555556,0.13,-0.37,0.04,9.329999923706055,4.6499998569488525
33,1517152815.49,9.0,0.3411764705882353,0.1607843137254902,125.6875,-20.25,12.4375,0,0,0,0.0,9.6875,5.75,0.75,0.08,0.0544444444444,-0.30444444444400004,-0.26,0.08,-0.23,13.960000038146973,4.630000114440918
34,1517152820.14,8.0,0.35294117647058826,0.16470588235294117,203.625,-19.625,15.6875,0,0,0,0.0,-6.0625,11.1875,-3.75,-0.0522222222222,-0.0022222222222199996,-0.302222222222,0.95,-0.08,0.16,18.610000133514404,4.650000095367432
35,1517152824.79,12.0,0.5019607843137255,0.2196078431372549,247.375,-16.0625,15.9375,0,0,0,0.0,-14.75,-6.875,-17.5,0.07111111111110001,-0.0033333333333300003,0.04666666666669999,0.32,0.96,-0.53,23.259999990463257,4.6499998569488525
36,1517152829.48,29.0,0.5529411764705883,0.21568627450980393,295.75,-11.5625,10.1875,0,0,0,0.0,-13.375,-5.75,-18.5625,-0.0866666666667,0.0166666666667,0.1,-0.47,0.57,0.19,27.950000047683716,4.690000057220459
37,1517152834.14,38.0,0.6039215686274509,0.22745098039215686,277.125,-13.1875,10.5625,0,0,0,0.0,-13.5,2.0625,-18.6875,0.07111111111110001,0.00777777777778,0.026666666666700003,-0.53,-0.83,-0.7,32.610000133514404,4.6600000858306885
38,1517152838.82,45.0,0.45098039215686275,0.20784313725490197,272.375,-13.875,10.5,0,0,0,0.0,-13.1875,-2.25,-20.5,-0.105555555556,0.00777777777778,-0.0555555555556,-0.34,-1.27,-0.08,37.28999996185303,4.679999828338623
39,1517152843.5,47.0,0.4666666666666667,0.2,282.875,-14.0,10.25,0,0,0,0.0,-16.5625,-70.875,-27.75,-0.0355555555556,-0.04666666666669999,-0.0188888888889,-0.79,-0.92,0.4,41.97000002861023,4.680000066757202
40,1517152848.14,49.0,0.38823529411764707,0.16862745098039217,283.3125,-16.125,12.25,0,0,0,0.0,-15.1875,-65.25,-28.75,0.0844444444444,0.0333333333333,-0.127777777778,0.36,-1.5,-1.15,46.610000133514404,4.640000104904175
41,1517152852.78,49.0,0.6392156862745098,0.1607843137254902,303.0625,-15.25,11.125,0,0,0,0.0,-9.0,-45.375,-24.5,0.0144444444444,0.05,-0.14444444444399998,-1.16,-2.58,0.35,51.25,4.639999866485596
42,1517152857.44,43.0,0.26666666666666666,0.1607843137254902,337.375,-15.1875,10.1875,0,0,0,0.0,-3.25,-40.5,-19.875,-0.036666666666699994,0.0288888888889,-0.10111111111099999,-1.35,-0.99,-0.23,55.91000008583069,4.6600000858306885
43,1517152862.09,23.0,0.3176470588235294,0.1607843137254902,357.25,-21.3125,14.5,0,0,0,0.0,1.25,-39.0,-16.75,-0.00777777777778,-0.011111111111099999,-0.023333333333299996,0.3,-0.01,0.21,60.55999994277954,4.6499998569488525
44,1517152866.72,10.0,0.34901960784313724,0.1607843137254902,1.0,-21.3125,14.375,0,0,0,0.0,0.0,-38.1875,-17.6875,0.023333333333299996,-0.004444444444439999,0.0011111111111099998,-0.21,-0.13,0.41,65.19000005722046,4.630000114440918
50,1517152894.71,20.0,0.5843137254901961,0.23529411764705882,340.625,-11.125,10.0,0,0,0,0.0,-10.375,-17.0625,-19.0,-0.12,-0.05,0.138888888889,-0.55,0.19,0.44,93.1800000667572,27.990000009536743
51,1517152899.34,38.0,0.5019607843137255,0.24313725490196078,279.0625,-10.5625,5.8125,0,0,0,0.0,-11.875,-6.5,-18.0,-0.0677777777778,0.0766666666667,-0.0033333333333300003,-0.43,-0.18,-0.33,97.80999994277954,4.629999876022339
52,1517152903.99,50.0,0.592156862745098,0.24313725490196078,272.875,-11.875,8.3125,0,0,0,0.0,-17.375,-67.5625,-26.875,0.162222222222,-0.19333333333299998,0.0011111111111099998,-1.04,0.1,0.89,102.46000003814697,4.650000095367432
53,1517152908.67,57.0,0.5803921568627451,0.23529411764705882,274.125,-12.3125,10.1875,0,0,0,0.0,-14.5625,-64.875,-28.1875,-0.0355555555556,-0.0211111111111,-0.0377777777778,-0.53,0.56,-0.17,107.14000010490417,4.680000066757202
54,1517152913.33,61.0,0.6352941176470588,0.23137254901960785,274.6875,-11.9375,10.6875,0,0,0,0.0,-14.5,-64.6875,-29.1875,0.06444444444439999,-0.0744444444444,0.0144444444444,-1.14,0.08,0.04,111.79999995231628,4.659999847412109
55,1517152917.99,62.0,0.5843137254901961,0.23921568627450981,274.5625,-13.625,11.75,0,0,0,0.0,-17.5625,-65.0625,-29.75,0.04,0.0166666666667,0.023333333333299996,-0.58,0.16,-0.62,116.46000003814697,4.6600000858306885
56,1517152922.63,63.0,0.5607843137254902,0.23529411764705882,274.875,-14.375,12.1875,0,0,0,0.0,-14.75,-63.0,-29.875,-0.026666666666700003,0.013333333333299998,0.0033333333333300003,-0.08,0.72,-0.33,121.10000014305115,4.640000104904175
57,1517152927.27,65.0,0.5372549019607843,0.23137254901960785,273.9375,-14.8125,12.3125,0,0,0,0.0,-14.6875,-63.0,-30.5,0.004444444444439999,-0.0011111111111099998,0.011111111111099999,-0.02,0.09,-0.19,125.74000000953674,4.639999866485596
58,1517152931.93,68.0,0.4666666666666667,0.23529411764705882,271.9375,-15.25,12.6875,0,0,0,0.0,-13.875,-60.5625,-30.0,-0.303333333333,0.005555555555560001,-0.13,0.31,-1.37,-0.85,130.40000009536743,4.6600000858306885
59,1517152936.56,68.0,0.5529411764705883,0.20784313725490197,270.625,-15.625,12.875,0,0,0,0.0,-14.0,-58.0625,-30.6875,0.07333333333330001,-0.0011111111111099998,0.0211111111111,-0.15,0.22,0.48,135.02999997138977,4.629999876022339
60,1517152941.2,68.0,0.25098039215686274,0.2,270.125,-16.0625,13.5625,0,0,0,0.0,-13.5,-59.0625,-30.875,0.164444444444,0.005555555555560001,0.12888888888900002,-0.65,1.31,0.67,139.67000007629395,4.640000104904175
61,1517152945.87,68.0,0.12549019607843137,0.1450980392156863,268.4375,-16.25,13.5,0,0,0,0.0,-14.5625,-56.0625,-29.5,0.04333333333330001,-0.0388888888889,-0.0333333333333,-1.57,0.0,0.95,144.3399999141693,4.669999837875366
62,1517152950.49,59.0,0.14901960784313725,0.16470588235294117,271.875,-16.9375,14.75,0,0,0,0.0,-13.1875,-54.5625,-28.6875,0.134444444444,-0.08333333333330001,-0.03,-1.84,0.01,-0.69,148.96000003814697,4.620000123977661
63,1517152955.15,43.0,0.20784313725490197,0.14901960784313725,276.25,-17.3125,16.0,0,0,0,0.0,-13.5625,-53.5625,-30.1875,-0.575555555556,-0.408888888889,0.24555555555599998,-0.81,0.41,0.54,153.62000012397766,4.6600000858306885
64,1517152959.8,34.0,0.23137254901960785,0.14901960784313725,264.375,-8.375,29.5,0,0,0,0.0,-2.25,-60.75,-32.1875,-0.0844444444444,0.011111111111099999,-0.00666666666667,-0.68,0.22,-0.27,158.2699999809265,4.6499998569488525
65,1517152964.48,21.0,0.28627450980392155,0.14901960784313725,266.0625,-15.25,22.8125,0,0,0,0.0,-18.25,-62.25,-34.25,0.0277777777778,-0.01,0.01,0.07,0.28,0.01,162.95000004768372,4.680000066757202
66,1517152969.11,5.0,0.30196078431372547,0.14901960784313725,265.25,-17.3125,21.125,0,0,0,0.0,-19.75,-65.375,-32.1875,-0.044444444444399996,-0.00777777777778,-0.0022222222222199996,1.15,-0.16,0.12,167.57999992370605,4.629999876022339
72,1517152997.13,5.0,0.5647058823529412,0.23921568627450981,266.125,-6.875,20.8125,0,0,0,0.0,-21.0625,-62.6875,-36.6875,-0.0333333333333,-0.023333333333299996,-0.0166666666667,0.36,-0.18,-0.36,195.60000014305115,28.020000219345093
73,1517153001.81,37.0,0.6901960784313725,0.2784313725490196,267.0,-1.5,20.4375,0,0,0,0.0,-20.1875,-63.875,-38.5625,-0.0011111111111099998,0.011111111111099999,0.008888888888889999,-0.66,-0.49,0.11,200.27999997138977,4.679999828338623
74,1517153006.5,56.0,0.5450980392156862,0.2196078431372549,264.625,-1.125,20.5625,0,0,0,0.0,-21.0625,-59.875,-35.5,-0.0277777777778,-0.0311111111111,0.036666666666699994,-1.2,1.21,-0.45,204.97000002861023,4.690000057220459
75,1517153011.18,62.0,0.23921568627450981,0.20784313725490197,260.5625,-1.6875,20.4375,0,0,0,0.0,-19.1875,-50.375,-34.0625,0.0355555555556,-0.07111111111110001,0.0588888888889,-1.36,1.53,1.45,209.65000009536743,4.680000066757202
76,1517153015.82,64.0,0.2549019607843137,0.21176470588235294,245.75,-4.8125,19.9375,0,0,0,0.0,-15.0,-39.375,-27.5,-0.117777777778,-0.025555555555599997,0.011111111111099999,-0.25,-0.04,-1.1,214.28999996185303,4.639999866485596
77,1517153020.47,65.0,0.4,0.1568627450980392,233.4375,-6.3125,19.9375,0,0,0,0.0,-14.1875,-34.0625,-27.0,-0.0511111111111,-0.0011111111111099998,-0.026666666666700003,-1.84,0.5,0.46,218.94000005722046,4.650000095367432
78,1517153025.16,63.0,0.10588235294117647,0.16862745098039217,230.3125,-6.125,22.5625,0,0,0,0.0,-17.375,-59.6875,-34.5625,-0.113333333333,-0.011111111111099999,-0.024444444444400002,-0.8,0.3,0.03,223.63000011444092,4.690000057220459
79,1517153029.82,62.0,0.24313725490196078,0.19607843137254902,227.9375,-5.3125,22.75,0,0,0,0.0,-17.0,-56.5625,-32.0625,0.308888888889,-0.07111111111110001,0.147777777778,-1.41,3.1,4.18,228.28999996185303,4.659999847412109
80,1517153034.53,62.0,0.33725490196078434,0.21176470588235294,219.3125,-5.25,23.5,0,0,0,0.0,-13.0,-47.0,-32.375,-0.025555555555599997,-0.004444444444439999,0.0477777777778,-0.13,2.55,1.48,233.0,4.710000038146973
81,1517153039.2,64.0,0.5254901960784314,0.20392156862745098,215.25,-4.125,23.1875,0,0,0,0.0,-12.6875,-44.75,-31.5625,-0.137777777778,-0.0388888888889,-0.0188888888889,-0.73,-0.24,-0.33,237.67000007629395,4.670000076293945
82,1517153043.85,61.0,0.13725490196078433,0.16470588235294117,215.0625,-4.4375,24.5625,0,0,0,0.0,-12.75,-45.5625,-30.5,0.121111111111,0.008888888888889999,0.044444444444399996,-1.57,2.56,1.58,242.3199999332428,4.6499998569488525
83,1517153048.51,58.0,0.36470588235294116,0.18823529411764706,214.3125,-7.4375,25.9375,0,0,0,0.0,-4.0,-39.75,-28.5625,-0.0333333333333,0.0211111111111,-0.008888888888889999,-0.32,1.27,-0.47,246.9800000190735,4.6600000858306885
84,1517153053.19,62.0,0.1803921568627451,0.14901960784313725,214.1875,-9.3125,25.125,0,0,0,0.0,-2.5625,-39.75,-29.1875,-0.142222222222,0.0022222222222199996,-0.044444444444399996,-1.0,-0.83,-0.04,251.6600000858307,4.680000066757202
85,1517153057.88,62.0,0.11372549019607843,0.1450980392156863,214.0625,-9.125,26.0,0,0,0,0.0,-1.0625,-40.6875,-28.25,-0.11888888888900001,0.0177777777778,-0.013333333333299998,-1.0,1.12,-1.19,256.35000014305115,4.690000057220459
86,1517153062.61,52.0,0.13333333333333333,0.1411764705882353,214.0,-7.8125,26.75,0,0,0,0.0,-4.25,-40.0,-28.1875,0.0155555555556,0.023333333333299996,-0.008888888888889999,-1.78,0.67,0.26,261.07999992370605,4.729999780654907
87,1517153067.29,30.0,0.2235294117647059,0.14901960784313725,217.5,-10.9375,25.3125,0,0,0,0.0,-6.0,-39.375,-27.6875,-0.103333333333,-0.0211111111111,-0.104444444444,-1.12,-0.22,-0.56,265.75999999046326,4.680000066757202
88,1517153071.99,4.0,0.5490196078431373,0.1803921568627451,231.0,-13.0,21.1875,0,0,0,0.0,-12.875,-16.75,-23.0,0.174444444444,0.173333333333,-0.452222222222,0.51,-1.78,0.65,270.460000038147,4.700000047683716
89,1517153076.64,25.0,0.6509803921568628,0.23921568627450981,311.875,-7.5625,18.5,0,0,0,0.0,-9.5625,-15.0625,-22.5,0.0677777777778,0.0177777777778,-0.0677777777778,0.58,-0.56,-0.96,275.1100001335144,4.650000095367432
90,1517153081.29,43.0,0.6745098039215687,0.22745098039215686,331.75,-7.625,19.0625,0,0,0,0.0,-1.5625,-20.1875,-21.6875,0.205555555556,0.013333333333299998,0.0488888888889,0.11,1.6,-0.52,279.75999999046326,4.6499998569488525
91,1517153085.97,55.0,0.5607843137254902,0.21568627450980393,344.625,-7.8125,18.6875,0,0,0,0.0,-12.75,-74.875,-38.1875,0.256666666667,-0.0155555555556,0.0522222222222,-1.05,1.83,1.03,284.44000005722046,4.680000066757202
92,1517153090.61,58.0,0.5490196078431373,0.2196078431372549,346.0,-7.25,19.6875,0,0,0,0.0,-13.375,-74.875,-40.0,-0.16555555555600002,-0.05,-0.0488888888889,-0.14,0.05,-0.7,289.07999992370605,4.639999866485596
93,1517153095.3,61.0,0.22745098039215686,0.18823529411764706,346.4375,-7.0,20.4375,0,0,0,0.0,-11.25,-72.5625,-38.5625,0.0333333333333,-0.0033333333333300003,0.05,-0.62,0.52,0.85,293.7699999809265,4.690000057220459
94,1517153099.96,63.0,0.3058823529411765,0.15294117647058825,339.375,-7.125,20.4375,0,0,0,0.0,-14.6875,-56.875,-32.1875,-0.0177777777778,-0.0577777777778,0.104444444444,-1.67,1.45,0.77,298.4300000667572,4.6600000858306885
95,1517153104.63,57.0,0.23529411764705882,0.2235294117647059,312.625,-7.9375,20.5,0,0,0,0.0,-18.6875,-35.5,-24.5,-0.0288888888889,-0.02,0.0377777777778,-0.15,0.32,0.19,303.10000014305115,4.670000076293945
96,1517153109.27,57.0,0.22745098039215686,0.23529411764705882,294.5,-7.625,22.8125,0,0,0,0.0,-18.0,-31.375,-24.0625,0.15888888888900002,0.008888888888889999,-0.0022222222222199996,0.0,-0.25,0.35,307.74000000953674,4.639999866485596
97,1517153113.92,59.0,0.5176470588235295,0.2,293.1875,-6.25,24.125,0,0,0,0.0,-20.6875,-30.1875,-27.375,-0.182222222222,-0.0311111111111,-0.0188888888889,-0.73,-0.49,0.32,312.3900001049042,4.650000095367432
98,1517153118.56,60.0,0.5607843137254902,0.14901960784313725,290.4375,-6.875,23.75,0,0,0,0.0,-20.0625,-26.875,-25.375,0.0977777777778,-0.0177777777778,0.0388888888889,-1.1,0.61,0.61,317.02999997138977,4.639999866485596
99,1517153123.22,53.0,0.12549019607843137,0.1450980392156863,277.875,-10.0,21.625,0,0,0,0.0,-20.5625,-23.0,-24.1875,-0.181111111111,-0.0311111111111,-0.008888888888889999,-0.58,-0.9,-0.71,321.69000005722046,4.6600000858306885
100,1517153127.91,42.0,0.1450980392156863,0.14901960784313725,265.625,-11.6875,18.8125,0,0,0,0.0,-21.1875,-19.5625,-21.1875,-0.0211111111111,-0.0333333333333,0.005555555555560001,-1.02,0.39,0.35,326.3800001144409,4.690000057220459
101,1517153132.57,26.0,0.23921568627450981,0.14901960784313725,258.3125,-12.25,19.5625,0,0,0,0.0,-19.0625,-18.5,-24.5625,0.008888888888889999,0.0177777777778,0.008888888888889999,-1.32,0.06,0.92,331.039999961853,4.659999847412109
102,1517153137.21,11.0,0.30980392156862746,0.14901960784313725,257.75,-13.1875,20.5,0,0,0,0.0,-18.5,-15.0625,-24.5,-0.06,0.0033333333333300003,-0.012222222222200001,-0.03,-0.32,0.05,335.6800000667572,4.640000104904175
103,1517153141.89,3.0,0.30196078431372547,0.1450980392156863,256.625,-11.8125,21.8125,0,0,0,0.0,-20.0,-15.0625,-23.6875,0.0,0.0,0.0011111111111099998,0.04,-0.05,0.08,340.3600001335144,4.680000066757202
104,1517153146.55,1.0,0.2901960784313726,0.1450980392156863,257.5625,-8.4375,21.1875,0,0,0,0.0,-21.75,-63.5,-32.75,0.004444444444439999,-0.00777777777778,-0.00777777777778,0.36,-0.16,0.16,345.0199999809265,4.659999847412109
105,1517153151.19,13.0,0.5529411764705883,0.23137254901960785,260.6875,2.25,20.1875,0,0,0,0.0,-21.875,-62.5625,-36.75,-0.0611111111111,0.0022222222222199996,-0.00777777777778,-0.1,-0.42,-0.51,349.6600000858307,4.640000104904175
106,1517153155.83,34.0,0.6274509803921569,0.25098039215686274,259.3125,0.625,20.3125,0,0,0,0.0,-23.875,-60.875,-37.5625,0.004444444444439999,-0.0177777777778,-0.013333333333299998,-0.07,-0.81,0.61,354.2999999523163,4.639999866485596
107,1517153160.48,50.0,0.6941176470588235,0.24313725490196078,259.1875,-0.9375,21.4375,0,0,0,0.0,-22.75,-63.375,-37.6875,0.103333333333,0.0455555555556,0.0188888888889,-1.57,-0.5,0.22,358.9500000476837,4.650000095367432
108,1517153165.15,57.0,0.5137254901960784,0.22745098039215686,258.0,-2.0625,20.9375,0,0,0,0.0,-20.5625,-61.5625,-38.0625,-0.0155555555556,-0.05333333333330001,-0.00666666666667,-1.25,1.2,0.94,363.62000012397766,4.670000076293945
109,1517153169.79,61.0,0.6352941176470588,0.16470588235294117,255.4375,-1.25,22.625,0,0,0,0.0,-19.5,-55.375,-38.0,0.0522222222222,0.025555555555599997,-0.013333333333299998,-1.61,-0.23,-0.32,368.25999999046326,4.639999866485596
110,1517153174.43,60.0,0.5725490196078431,0.15294117647058825,262.3125,-3.4375,22.5,0,0,0,0.0,-17.6875,-55.5,-36.75,0.151111111111,0.166666666667,0.05,0.16,1.1,-1.82,372.90000009536743,4.640000104904175
111,1517153179.05,64.0,0.19607843137254902,0.17647058823529413,263.1875,-5.4375,22.5625,0,0,0,0.0,-19.0,-54.5,-37.1875,-0.0177777777778,-0.044444444444399996,-0.0177777777778,-1.68,0.18,1.27,377.5199999809265,4.619999885559082
112,1517153183.72,65.0,0.1803921568627451,0.17647058823529413,263.3125,-5.25,23.0,0,0,0,0.0,-16.6875,-53.5625,-37.75,-0.161111111111,-0.0166666666667,-0.0355555555556,-1.89,-0.06,-0.98,382.19000005722046,4.670000076293945
113,1517153188.39,67.0,0.12941176470588237,0.1607843137254902,263.4375,-4.3125,23.5625,0,0,0,0.0,-19.5,-51.75,-38.375,-0.03,-0.008888888888889999,-0.022222222222199998,-2.13,1.91,0.97,386.8600001335144,4.670000076293945
114,1517153193.07,62.0,0.1411764705882353,0.1450980392156863,264.5,-1.625,24.625,0,0,0,0.0,-21.0625,-53.1875,-38.6875,-0.06888888888889999,0.0388888888889,-0.0144444444444,-2.14,0.27,-2.73,391.539999961853,4.679999828338623
115,1517153197.73,49.0,0.16470588235294117,0.1450980392156863,264.875,-3.9375,21.6875,0,0,0,0.0,-19.75,-53.5625,-38.0,0.0844444444444,-0.08222222222219999,-0.025555555555599997,-1.77,1.7,1.43,396.2000000476837,4.6600000858306885
116,1517153202.39,33.0,0.6431372549019608,0.14901960784313725,264.25,-3.5625,24.4375,0,0,0,0.0,-18.5625,-50.0,-38.75,-0.0288888888889,0.024444444444400002,-0.0022222222222199996,-1.45,1.88,-0.06,400.8600001335144,4.6600000858306885
117,1517153207.04,25.0,0.23137254901960785,0.14901960784313725,263.75,-7.75,22.75,0,0,0,0.0,-21.5,-63.5625,-35.25,-0.004444444444439999,0.008888888888889999,-0.0022222222222199996,-0.38,0.23,0.01,405.50999999046326,4.6499998569488525
118,1517153211.7,10.0,0.29411764705882354,0.1450980392156863,264.0625,-15.1875,25.6875,0,0,0,0.0,-19.0,-57.0625,-35.0,0.0488888888889,0.023333333333299996,-0.0355555555556,-0.63,0.5,0.15,410.17000007629395,4.6600000858306885
122,1517153230.3,21.0,0.7294117647058823,0.24313725490196078,339.25,-0.5,21.25,0,0,0,0.0,-1.25,-26.1875,-17.0,0.0811111111111,-0.0744444444444,-0.0288888888889,-0.52,1.08,-1.1,428.7699999809265,18.59999990463257
123,1517153234.96,42.0,0.19607843137254902,0.16862745098039217,350.375,-3.0625,18.875,0,0,0,0.0,-0.25,-26.0625,-17.5625,0.09444444444439999,-0.0333333333333,0.0455555555556,-1.21,0.54,-1.69,433.4300000667572,4.6600000858306885
124,1517153239.62,47.0,0.6235294117647059,0.1803921568627451,350.8125,-2.5,19.4375,0,0,0,0.0,0.375,-25.75,-19.1875,0.138888888889,-0.0522222222222,0.0166666666667,-0.16,1.01,-0.7,438.0899999141693,4.659999847412109
125,1517153244.29,57.0,0.6901960784313725,0.2,351.3125,-2.9375,19.25,0,0,0,0.0,0.5625,-25.5625,-18.5,-0.115555555556,0.03,-0.0144444444444,-0.55,-1.34,-0.94,442.75999999046326,4.670000076293945
126,1517153248.92,64.0,0.17647058823529413,0.2,351.5625,-4.375,20.375,0,0,0,0.0,0.375,-24.5,-19.5,-0.147777777778,0.0011111111111099998,-0.022222222222199998,-0.84,-1.2,-0.46,447.3900001049042,4.630000114440918
127,1517153253.59,66.0,0.3333333333333333,0.1568627450980392,351.6875,-6.0,21.5625,0,0,0,0.0,0.0625,-25.1875,-19.25,0.09444444444439999,0.05,0.0277777777778,-0.31,-1.05,0.65,452.05999994277954,4.669999837875366
128,1517153258.27,66.0,0.6235294117647059,0.1450980392156863,351.0,-7.5625,20.25,0,0,0,0.0,1.1875,-26.25,-17.75,-0.07,-0.0155555555556,-0.025555555555599997,-1.08,-0.46,-0.27,456.74000000953674,4.680000066757202
129,1517153262.93,62.0,0.3137254901960784,0.1803921568627451,350.0625,-11.0625,20.125,0,0,0,0.0,-1.875,-24.875,-16.0,0.004444444444439999,-0.0188888888889,-0.0144444444444,0.03,-0.08,0.51,461.40000009536743,4.6600000858306885
130,1517153267.58,63.0,0.2,0.16470588235294117,350.3125,-10.9375,21.125,0,0,0,0.0,-9.875,-79.0,-38.75,-0.0022222222222199996,0.133333333333,0.0455555555556,-0.34,1.61,-1.63,466.0499999523163,4.6499998569488525
131,1517153272.24,64.0,0.14901960784313725,0.25098039215686274,351.9375,-9.875,22.25,0,0,0,0.0,-9.875,-77.0,-44.0,-0.036666666666699994,0.0033333333333300003,-0.02,-0.16,-0.11,0.08,470.710000038147,4.6600000858306885
132,1517153276.87,62.0,0.1411764705882353,0.1411764705882353,351.125,-11.0625,21.25,0,0,0,0.0,-7.75,-73.875,-43.25,-0.013333333333299998,0.0388888888889,0.00666666666667,-0.3,-0.45,-0.03,475.3399999141693,4.629999876022339
133,1517153281.55,52.0,0.14901960784313725,0.14901960784313725,350.0625,-14.25,19.8125,0,0,0,0.0,-9.6875,-75.1875,-43.0625,0.012222222222200001,0.005555555555560001,0.00666666666667,-0.5,-0.1,0.59,480.0199999809265,4.680000066757202
134,1517153286.21,36.0,0.23921568627450981,0.14901960784313725,348.875,-15.9375,20.1875,0,0,0,0.0,-11.5,-75.5,-42.0625,-0.03,0.004444444444439999,-0.00666666666667,-0.19,-0.04,0.13,484.6800000667572,4.6600000858306885
135,1517153290.87,18.0,0.3058823529411765,0.14901960784313725,348.875,-16.5625,20.0,0,0,0,0.0,-11.5,-75.5,-42.0625,-0.0033333333333300003,-0.00666666666667,-0.0011111111111099998,0.0,0.17,0.14,489.3399999141693,4.659999847412109
136,1517153295.53,8.0,0.5019607843137255,0.21568627450980393,349.5,-11.0625,18.5625,0,0,0,0.0,-10.5,-73.5625,-44.25,0.0288888888889,0.004444444444439999,0.004444444444439999,0.36,0.48,0.35,494.0,4.6600000858306885
137,1517153300.21,32.0,0.8705882352941177,0.33725490196078434,351.3125,-0.4375,18.4375,0,0,0,0.0,-12.0625,-73.875,-42.875,0.0033333333333300003,-0.005555555555560001,0.01,-0.6,-0.08,-0.35,498.6800000667572,4.680000066757202
138,1517153304.87,53.0,0.34509803921568627,0.2823529411764706,350.6875,-2.75,18.1875,0,0,0,0.0,-9.375,-71.75,-42.25,-0.005555555555560001,-0.011111111111099999,0.0022222222222199996,-0.16,0.25,-0.16,503.3399999141693,4.659999847412109
139,1517153309.51,62.0,0.3176470588235294,0.24313725490196078,350.5,-5.6875,17.8125,0,0,0,0.0,-10.0,-71.875,-43.75,0.05333333333330001,0.005555555555560001,0.012222222222200001,-0.35,0.31,-0.16,507.9800000190735,4.640000104904175
140,1517153314.18,63.0,0.3137254901960784,0.22745098039215686,349.375,-10.125,19.4375,0,0,0,0.0,-9.5,-71.0,-44.25,-0.0988888888889,0.00666666666667,-0.0211111111111,-0.28,-0.71,0.48,512.6500000953674,4.670000076293945
141,1517153318.85,67.0,0.7137254901960784,0.1411764705882353,349.75,-9.9375,20.5625,0,0,0,0.0,-9.0,-69.875,-44.75,-0.103333333333,0.0588888888889,0.00777777777778,0.47,-0.34,-1.21,517.3199999332428,4.669999837875366
142,1517153323.52,66.0,0.2196078431372549,0.18823529411764706,348.75,-11.1875,21.0,0,0,0,0.0,-7.0625,-71.0,-45.875,0.0811111111111,0.00777777777778,0.0311111111111,0.3,0.96,0.23,521.9900000095367,4.670000076293945
143,1517153328.14,68.0,0.7254901960784313,0.16470588235294117,348.25,-11.3125,21.6875,0,0,0,0.0,-11.375,-77.0,-37.25,-0.026666666666700003,0.00666666666667,-0.0144444444444,0.19,0.03,-0.43,526.6100001335144,4.620000123977661
144,1517153332.8,70.0,0.5411764705882353,0.1450980392156863,348.8125,-11.5,22.4375,0,0,0,0.0,-9.875,-74.5625,-38.5,0.0355555555556,-0.024444444444400002,-0.0011111111111099998,-0.43,-0.35,1.11,531.2699999809265,4.659999847412109
145,1517153337.47,70.0,0.12549019607843137,0.1450980392156863,348.25,-11.1875,22.9375,0,0,0,0.0,-10.5,-75.0,-38.375,-0.07111111111110001,0.026666666666700003,-0.0155555555556,-0.45,0.69,0.54,535.9400000572205,4.670000076293945
146,1517153342.14,67.0,0.13333333333333333,0.23921568627450981,348.0625,-10.875,23.125,0,0,0,0.0,-12.5625,-74.5,-38.875,-0.06,-0.0144444444444,-0.025555555555599997,0.04,-0.45,-0.18,540.6100001335144,4.670000076293945
147,1517153346.8,66.0,0.5372549019607843,0.1450980392156863,348.3125,-10.0,22.0625,0,0,0,0.0,-11.0625,-73.5625,-39.375,0.105555555556,0.0655555555556,0.0477777777778,-0.34,0.25,-0.11,545.2699999809265,4.659999847412109
148,1517153351.44,61.0,0.1411764705882353,0.25098039215686274,347.875,-11.0,22.0625,0,0,0,0.0,-18.1875,-73.5625,-37.875,-0.0577777777778,-0.005555555555560001,-0.02,0.37,-0.93,0.31,549.9100000858307,4.640000104904175
149,1517153356.09,62.0,0.6901960784313725,0.23137254901960785,348.3125,-8.75,21.8125,0,0,0,0.0,-18.0,-73.5,-38.875,-0.147777777778,0.024444444444400002,-0.0288888888889,0.03,-0.82,-1.67,554.5599999427795,4.6499998569488525
150,1517153360.78,64.0,0.1568627450980392,0.23921568627450981,347.9375,-8.6875,21.9375,0,0,0,0.0,-18.5625,-69.875,-39.5,-0.01,0.011111111111099999,0.013333333333299998,-0.47,0.43,0.26,559.25,4.690000057220459
151,1517153365.44,59.0,0.6980392156862745,0.2549019607843137,346.625,-11.1875,20.75,0,0,0,0.0,-16.5,-68.5,-38.1875,-0.0311111111111,-0.0211111111111,-0.0355555555556,0.34,0.15,0.28,563.9100000858307,4.6600000858306885
152,1517153370.12,64.0,0.5882352941176471,0.20784313725490197,347.75,-9.875,21.8125,0,0,0,0.0,-18.0,-69.875,-40.75,0.013333333333299998,0.0144444444444,0.012222222222200001,0.28,1.47,-2.19,568.5899999141693,4.679999828338623
153,1517153374.77,65.0,0.6941176470588235,0.2549019607843137,347.5,-9.625,20.8125,0,0,0,0.0,-19.1875,-69.5625,-39.375,0.0488888888889,-0.0144444444444,-0.0011111111111099998,0.09,0.45,0.26,573.2400000095367,4.650000095367432
154,1517153379.41,67.0,0.7764705882352941,0.2196078431372549,348.1875,-8.125,21.5625,0,0,0,0.0,-18.75,-68.375,-39.5,0.08222222222219999,-0.004444444444439999,0.022222222222199998,-0.22,0.41,0.83,577.8800001144409,4.640000104904175
155,1517153384.07,68.0,0.5490196078431373,0.16470588235294117,347.8125,-8.1875,21.3125,0,0,0,0.0,-18.1875,-68.5,-40.25,-0.07,-0.004444444444439999,-0.012222222222200001,-0.45,-0.56,-0.13,582.539999961853,4.659999847412109
156,1517153388.71,61.0,0.1411764705882353,0.1411764705882353,347.0625,-11.0,21.1875,0,0,0,0.0,-13.875,-76.5625,-38.6875,0.0611111111111,-0.00666666666667,0.0033333333333300003,0.01,0.24,-0.53,587.1800000667572,4.640000104904175
